{"type": "FeatureCollection", "features": [{"type":"Feature","geometry":{"type":"Point","coordinates":[-88.103184,30.701142]},"properties":{"cartodb_id":1,"name":"Bardwell, Keith ","city":"Mobile","state":"AL","location":"Mobile,AL","latitude":30.701142,"longitude":-88.103184}},{"type":"Feature","geometry":{"type":"Point","coordinates":[-87.726796,30.384723]},"properties":{"cartodb_id":2,"name":"Brown, Cyrus ","city":"Foley","state":"AL","location":"Foley,AL","latitude":30.384723,"longitude":-87.726796}},{"type":"Feature","geometry":{"type":"Point","coordinates":[-87.549041,30.412773]},"properties":{"cartodb_id":3,"name":"Brown, David ","city":"Elberta","state":"AL","location":"Elberta,AL","latitude":30.412773,"longitude":-87.549041}},{"type":"Feature","geometry":{"type":"Point","coordinates":[-88.272544,30.779545]},"properties":{"cartodb_id":4,"name":"Campbell, Leo ","city":"Semmes","state":"AL","location":"Semmes,AL","latitude":30.779545,"longitude":-88.272544}},{"type":"Feature","geometry":{"type":"Point","coordinates":[-88.05611,30.85324]},"properties":{"cartodb_id":5,"name":"Cross, Benjamin ","city":"Satsuma","state":"AL","location":"Satsuma,AL","latitude":30.85324,"longitude":-88.05611}},{"type":"Feature","geometry":{"type":"Point","coordinates":[-88.103184,30.701142]},"properties":{"cartodb_id":6,"name":"Daniels, Tommie Whittake","city":"Mobile","state":"AL","location":"Mobile,AL","latitude":30.701142,"longitude":-88.103184}},{"type":"Feature","geometry":{"type":"Point","coordinates":[-85.468222,32.547542]},"properties":{"cartodb_id":7,"name":"Dees Jr, Edward ","city":"Auburn ","state":"AL","location":"Auburn ,AL","latitude":32.547542,"longitude":-85.468222}},{"type":"Feature","geometry":{"type":"Point","coordinates":[-88.22806,31.09073]},"properties":{"cartodb_id":8,"name":"Dyess, William Mack","city":"Citronelle","state":"AL","location":"Citronelle,AL","latitude":31.09073,"longitude":-88.22806}},{"type":"Feature","geometry":{"type":"Point","coordinates":[-86.325995,33.592484]},"properties":{"cartodb_id":9,"name":"Hazelwood, Harold ","city":"Pell City","state":"AL","location":"Pell City,AL","latitude":33.592484,"longitude":-86.325995}},{"type":"Feature","geometry":{"type":"Point","coordinates":[-88.181921,30.929148]},"properties":{"cartodb_id":10,"name":"Hendry, James ","city":"Chunchula","state":"AL","location":"Chunchula,AL","latitude":30.929148,"longitude":-88.181921}},{"type":"Feature","geometry":{"type":"Point","coordinates":[-85.934285,34.049367]},"properties":{"cartodb_id":11,"name":"Humphries, William ","city":"Gadsden","state":"AL","location":"Gadsden,AL","latitude":34.049367,"longitude":-85.934285}},{"type":"Feature","geometry":{"type":"Point","coordinates":[-88.103184,30.701142]},"properties":{"cartodb_id":12,"name":"Jolly, Victor ","city":"Mobile","state":"AL","location":"Mobile,AL","latitude":30.701142,"longitude":-88.103184}},{"type":"Feature","geometry":{"type":"Point","coordinates":[-87.726796,30.384723]},"properties":{"cartodb_id":13,"name":"Keevan, Benn Alton","city":"Foley","state":"AL","location":"Foley,AL","latitude":30.384723,"longitude":-87.726796}},{"type":"Feature","geometry":{"type":"Point","coordinates":[-86.801904,33.456412]},"properties":{"cartodb_id":14,"name":"King, Jimmy ","city":"Birmingham","state":"AL","location":"Birmingham,AL","latitude":33.456412,"longitude":-86.801904}},{"type":"Feature","geometry":{"type":"Point","coordinates":[-86.801904,33.456412]},"properties":{"cartodb_id":16,"name":"Lenyard, Harrison ","city":"Birmingham","state":"AL","location":"Birmingham,AL","latitude":33.456412,"longitude":-86.801904}},{"type":"Feature","geometry":{"type":"Point","coordinates":[-88.272544,30.779545]},"properties":{"cartodb_id":17,"name":"Malone, Cedric ","city":"Semmes","state":"AL","location":"Semmes,AL","latitude":30.779545,"longitude":-88.272544}},{"type":"Feature","geometry":{"type":"Point","coordinates":[-87.77305,30.88296]},"properties":{"cartodb_id":18,"name":"Marks, James ","city":"Bay Minette","state":"AL","location":"Bay Minette,AL","latitude":30.88296,"longitude":-87.77305}},{"type":"Feature","geometry":{"type":"Point","coordinates":[-88.103184,30.701142]},"properties":{"cartodb_id":19,"name":"Osborne, Arnold Russell","city":"Mobile","state":"AL","location":"Mobile,AL","latitude":30.701142,"longitude":-88.103184}},{"type":"Feature","geometry":{"type":"Point","coordinates":[-87.79333,30.74269]},"properties":{"cartodb_id":20,"name":"Robinson, Alvin ","city":"Stapleton","state":"AL","location":"Stapleton,AL","latitude":30.74269,"longitude":-87.79333}},{"type":"Feature","geometry":{"type":"Point","coordinates":[-88.22806,31.09073]},"properties":{"cartodb_id":22,"name":"Turner, Charles Edward","city":"Citronelle","state":"AL","location":"Citronelle,AL","latitude":31.09073,"longitude":-88.22806}},{"type":"Feature","geometry":{"type":"Point","coordinates":[-94.223419,36.347107]},"properties":{"cartodb_id":23,"name":"Basham, Jerry L","city":"Bentonville ","state":"AR","location":"Bentonville ,AR","latitude":36.347107,"longitude":-94.223419}},{"type":"Feature","geometry":{"type":"Point","coordinates":[-94.17326,35.3362]},"properties":{"cartodb_id":24,"name":"Billingsley, Doren Jay","city":"Lavaca","state":"AR","location":"Lavaca,AR","latitude":35.3362,"longitude":-94.17326}},{"type":"Feature","geometry":{"type":"Point","coordinates":[-93.930763,35.19356]},"properties":{"cartodb_id":25,"name":"Boersma, Michael H","city":"Booneville","state":"AR","location":"Booneville,AR","latitude":35.19356,"longitude":-93.930763}},{"type":"Feature","geometry":{"type":"Point","coordinates":[-93.876485,33.431043]},"properties":{"cartodb_id":26,"name":"Cigainero, Stephen ","city":"Texarkana","state":"AR","location":"Texarkana,AR","latitude":33.431043,"longitude":-93.876485}},{"type":"Feature","geometry":{"type":"Point","coordinates":[-93.942206,34.024903]},"properties":{"cartodb_id":27,"name":"Clemons, Warren W","city":"Nasheville","state":"AR","location":"Nasheville,AR","latitude":34.024903,"longitude":-93.942206}},{"type":"Feature","geometry":{"type":"Point","coordinates":[-94.193334,35.479157]},"properties":{"cartodb_id":28,"name":"Coleman, Michael N","city":"Alma","state":"AR","location":"Alma,AR","latitude":35.479157,"longitude":-94.193334}},{"type":"Feature","geometry":{"type":"Point","coordinates":[-93.8277,35.48703]},"properties":{"cartodb_id":29,"name":"Griffin, Jerry David","city":"Ozark","state":"AR","location":"Ozark,AR","latitude":35.48703,"longitude":-93.8277}},{"type":"Feature","geometry":{"type":"Point","coordinates":[-94.13076,36.25535]},"properties":{"cartodb_id":30,"name":"Hankins, Mitchell ","city":"Lowell","state":"AR","location":"Lowell,AR","latitude":36.25535,"longitude":-94.13076}},{"type":"Feature","geometry":{"type":"Point","coordinates":[-91.215672,36.183681]},"properties":{"cartodb_id":31,"name":"Holder, Chadney ","city":"Imboden","state":"AR","location":"Imboden,AR","latitude":36.183681,"longitude":-91.215672}},{"type":"Feature","geometry":{"type":"Point","coordinates":[-91.905399,34.81247]},"properties":{"cartodb_id":32,"name":"Kirk, Cortez ","city":"Lonoke","state":"AR","location":"Lonoke,AR","latitude":34.81247,"longitude":-91.905399}},{"type":"Feature","geometry":null,"properties":{"cartodb_id":21,"name":"Sumerlin Jr, James Lou","city":"Chickasaw","state":"AL","location":"Chickasaw,AL","latitude":30.7638,"longitude":-88.0747}},{"type":"Feature","geometry":null,"properties":{"cartodb_id":15,"name":"Lambert Jr, Wesley ","city":"Chickasaw","state":"AL","location":"Chickasaw,AL","latitude":30.7638,"longitude":-88.0747}},{"type":"Feature","geometry":{"type":"Point","coordinates":[-94.124776,35.565805]},"properties":{"cartodb_id":33,"name":"O'Kelley, Timothy Edwin","city":"Mulberry ","state":"AR","location":"Mulberry ,AR","latitude":35.565805,"longitude":-94.124776}},{"type":"Feature","geometry":{"type":"Point","coordinates":[-94.416458,35.366188]},"properties":{"cartodb_id":34,"name":"Page, Bobby R","city":"Fort Smith","state":"AR","location":"Fort Smith,AR","latitude":35.366188,"longitude":-94.416458}},{"type":"Feature","geometry":{"type":"Point","coordinates":[-94.317796,35.927985]},"properties":{"cartodb_id":35,"name":"Parks, Johnny D","city":"Prairie Grove","state":"AR","location":"Prairie Grove,AR","latitude":35.927985,"longitude":-94.317796}},{"type":"Feature","geometry":{"type":"Point","coordinates":[-94.362242,34.5019]},"properties":{"cartodb_id":36,"name":"Rummel Jr, Charles A","city":"Hatfield","state":"AR","location":"Hatfield,AR","latitude":34.5019,"longitude":-94.362242}},{"type":"Feature","geometry":{"type":"Point","coordinates":[-93.942206,34.024903]},"properties":{"cartodb_id":37,"name":"Sharp, Jimmy ","city":"Nashville","state":"AR","location":"Nashville,AR","latitude":34.024903,"longitude":-93.942206}},{"type":"Feature","geometry":{"type":"Point","coordinates":[-90.623071,35.835847]},"properties":{"cartodb_id":38,"name":"Shirley, Lanny","city":"Jonesboro","state":"AR","location":"Jonesboro,AR","latitude":35.835847,"longitude":-90.623071}},{"type":"Feature","geometry":{"type":"Point","coordinates":[-94.193334,35.479157]},"properties":{"cartodb_id":39,"name":"Staton Jr, James Thomas","city":"Alma","state":"AR","location":"Alma,AR","latitude":35.479157,"longitude":-94.193334}},{"type":"Feature","geometry":{"type":"Point","coordinates":[-114.348519,34.48025]},"properties":{"cartodb_id":40,"name":"Crum, Mark ","city":"Lake Havasa City","state":"AZ","location":"Lake Havasa City,AZ","latitude":34.48025,"longitude":-114.348519}},{"type":"Feature","geometry":{"type":"Point","coordinates":[-73.755133,40.605382]},"properties":{"cartodb_id":41,"name":"Sanchez, Lawrence ","city":"Queen Creek","state":"AZ","location":"Queen Creek,AZ","latitude":40.605382,"longitude":-73.755133}},{"type":"Feature","geometry":{"type":"Point","coordinates":[-80.895344,28.699314]},"properties":{"cartodb_id":42,"name":"Ahrens, Louis Henry","city":"Mims","state":"FL","location":"Mims,FL","latitude":28.699314,"longitude":-80.895344}},{"type":"Feature","geometry":{"type":"Point","coordinates":[-81.899669,28.035908]},"properties":{"cartodb_id":43,"name":"Armstrong, Cameron ","city":"Lakeland","state":"FL","location":"Lakeland,FL","latitude":28.035908,"longitude":-81.899669}},{"type":"Feature","geometry":{"type":"Point","coordinates":[-81.797016,30.152238]},"properties":{"cartodb_id":44,"name":"Bailey, Elmo A","city":"Orange PArk","state":"FL","location":"Orange PArk,FL","latitude":30.152238,"longitude":-81.797016}},{"type":"Feature","geometry":{"type":"Point","coordinates":[-80.070249,26.715844]},"properties":{"cartodb_id":45,"name":"Barbier, Hayes Alphonse","city":"West Palm Beach","state":"FL","location":"West Palm Beach,FL","latitude":26.715844,"longitude":-80.070249}},{"type":"Feature","geometry":{"type":"Point","coordinates":[-81.009032,28.486379]},"properties":{"cartodb_id":46,"name":"Barker, Charles Dale","city":"Christmas","state":"FL","location":"Christmas,FL","latitude":28.486379,"longitude":-81.009032}},{"type":"Feature","geometry":{"type":"Point","coordinates":[-81.653642,28.811078]},"properties":{"cartodb_id":47,"name":"Bassett, Ronald R","city":"Mount Dora","state":"FL","location":"Mount Dora,FL","latitude":28.811078,"longitude":-81.653642}},{"type":"Feature","geometry":{"type":"Point","coordinates":[-81.33425,29.402177]},"properties":{"cartodb_id":48,"name":"Bennett, James ","city":"Bunnell","state":"FL","location":"Bunnell,FL","latitude":29.402177,"longitude":-81.33425}},{"type":"Feature","geometry":{"type":"Point","coordinates":[-81.299169,28.793491]},"properties":{"cartodb_id":49,"name":"Bridges, Berman ","city":"Sanford","state":"FL","location":"Sanford,FL","latitude":28.793491,"longitude":-81.299169}},{"type":"Feature","geometry":{"type":"Point","coordinates":[-81.037556,29.243592]},"properties":{"cartodb_id":50,"name":"Brown, Stephen E","city":"Holly Hill","state":"FL","location":"Holly Hill,FL","latitude":29.243592,"longitude":-81.037556}},{"type":"Feature","geometry":{"type":"Point","coordinates":[-82.464468,27.144031]},"properties":{"cartodb_id":51,"name":"Byrne Jr, William M","city":"Nokomis","state":"FL","location":"Nokomis,FL","latitude":27.144031,"longitude":-82.464468}},{"type":"Feature","geometry":{"type":"Point","coordinates":[-80.254768,27.189748]},"properties":{"cartodb_id":52,"name":"Carroll, Kenneth D","city":"Stuart","state":"FL","location":"Stuart,FL","latitude":27.189748,"longitude":-80.254768}},{"type":"Feature","geometry":{"type":"Point","coordinates":[-81.172169,29.022729]},"properties":{"cartodb_id":53,"name":"Corley, Martin C","city":"Ormond Beach","state":"FL","location":"Ormond Beach,FL","latitude":29.022729,"longitude":-81.172169}},{"type":"Feature","geometry":{"type":"Point","coordinates":[-86.985834,30.792885]},"properties":{"cartodb_id":54,"name":"Cummins, Wayne ","city":"Milton","state":"FL","location":"Milton,FL","latitude":30.792885,"longitude":-86.985834}},{"type":"Feature","geometry":{"type":"Point","coordinates":[-80.275056,26.067529]},"properties":{"cartodb_id":55,"name":"Czyzewski, David Michael","city":"Davie","state":"FL","location":"Davie,FL","latitude":26.067529,"longitude":-80.275056}},{"type":"Feature","geometry":{"type":"Point","coordinates":[-82.64092,27.775654]},"properties":{"cartodb_id":56,"name":"DaCosta, Juan ","city":"St Petersburg","state":"FL","location":"St Petersburg,FL","latitude":27.775654,"longitude":-82.64092}},{"type":"Feature","geometry":{"type":"Point","coordinates":[-87.222516,30.428781]},"properties":{"cartodb_id":57,"name":"Davis, William H","city":"Pensacola","state":"Fl","location":"Pensacola,Fl","latitude":30.428781,"longitude":-87.222516}},{"type":"Feature","geometry":{"type":"Point","coordinates":[-82.736882,28.239369]},"properties":{"cartodb_id":58,"name":"Doerr, Charles ","city":"New Port Richey","state":"FL","location":"New Port Richey,FL","latitude":28.239369,"longitude":-82.736882}},{"type":"Feature","geometry":{"type":"Point","coordinates":[-82.152363,26.985889]},"properties":{"cartodb_id":59,"name":"Duffy, Andrew B","city":"Port Charlotte","state":"FL","location":"Port Charlotte,FL","latitude":26.985889,"longitude":-82.152363}},{"type":"Feature","geometry":{"type":"Point","coordinates":[-81.367087,29.918235]},"properties":{"cartodb_id":60,"name":"Fedak, Dennis M B","city":"St. Augustine","state":"FL","location":"St. Augustine,FL","latitude":29.918235,"longitude":-81.367087}},{"type":"Feature","geometry":{"type":"Point","coordinates":[-81.225582,29.05725]},"properties":{"cartodb_id":61,"name":"Flowers, Scott ","city":"Deland","state":"FL","location":"Deland,FL","latitude":29.05725,"longitude":-81.225582}},{"type":"Feature","geometry":{"type":"Point","coordinates":[-80.127909,26.121323]},"properties":{"cartodb_id":62,"name":"Freeman, Robert J","city":"Fort Lauderdale","state":"FL","location":"Fort Lauderdale,FL","latitude":26.121323,"longitude":-80.127909}},{"type":"Feature","geometry":{"type":"Point","coordinates":[-81.878139,26.621074]},"properties":{"cartodb_id":63,"name":"Freund Jr, Russell ","city":"Ft. Myers","state":"FL","location":"Ft. Myers,FL","latitude":26.621074,"longitude":-81.878139}},{"type":"Feature","geometry":{"type":"Point","coordinates":[-80.058097,26.775341]},"properties":{"cartodb_id":64,"name":"Gaines, Andrew S","city":"Riviera Beach","state":"FL","location":"Riviera Beach,FL","latitude":26.775341,"longitude":-80.058097}},{"type":"Feature","geometry":{"type":"Point","coordinates":[-82.704101,28.297976]},"properties":{"cartodb_id":65,"name":"Gallagher, Michael ","city":"Port Richey","state":"FL","location":"Port Richey,FL","latitude":28.297976,"longitude":-82.704101}},{"type":"Feature","geometry":{"type":"Point","coordinates":[-81.653642,28.811078]},"properties":{"cartodb_id":66,"name":"Gardner, Jon ","city":"Mount Dora","state":"FL","location":"Mount Dora,FL","latitude":28.811078,"longitude":-81.653642}},{"type":"Feature","geometry":{"type":"Point","coordinates":[-80.534169,27.412128]},"properties":{"cartodb_id":67,"name":"Genevick, Francis A","city":"Fort Pierce","state":"FL","location":"Fort Pierce,FL","latitude":27.412128,"longitude":-80.534169}},{"type":"Feature","geometry":{"type":"Point","coordinates":[-81.661922,26.593573]},"properties":{"cartodb_id":68,"name":"Gilbert, Michael J","city":"Lehigh Acres","state":"FL","location":"Lehigh Acres,FL","latitude":26.593573,"longitude":-81.661922}},{"type":"Feature","geometry":{"type":"Point","coordinates":[-81.653642,28.811078]},"properties":{"cartodb_id":69,"name":"Gliva, Thomas Frank","city":"Lady Lake","state":"FL","location":"Lady Lake,FL","latitude":28.811078,"longitude":-81.653642}},{"type":"Feature","geometry":{"type":"Point","coordinates":[-84.258472,30.427753]},"properties":{"cartodb_id":70,"name":"Goodman, Allen Bruce","city":"Tallahassee ","state":"FL","location":"Tallahassee ,FL","latitude":30.427753,"longitude":-84.258472}},{"type":"Feature","geometry":{"type":"Point","coordinates":[-82.134741,28.029627]},"properties":{"cartodb_id":71,"name":"Green, Dannie Lee","city":"Plant City","state":"FL","location":"Plant City,FL","latitude":28.029627,"longitude":-82.134741}},{"type":"Feature","geometry":{"type":"Point","coordinates":[-81.301856,28.939904]},"properties":{"cartodb_id":72,"name":"Gregory, Albert ","city":"Orange City","state":"FL","location":"Orange City,FL","latitude":28.939904,"longitude":-81.301856}},{"type":"Feature","geometry":{"type":"Point","coordinates":[-81.809939,27.186146]},"properties":{"cartodb_id":73,"name":"Haak, Timothy L","city":"Arcadia","state":"FL","location":"Arcadia,FL","latitude":27.186146,"longitude":-81.809939}},{"type":"Feature","geometry":{"type":"Point","coordinates":[-81.172169,29.022729]},"properties":{"cartodb_id":74,"name":"Hall, Garey D","city":"Ormand Beach","state":"FL","location":"Ormand Beach,FL","latitude":29.022729,"longitude":-81.172169}},{"type":"Feature","geometry":{"type":"Point","coordinates":[-86.13605,30.49825]},"properties":{"cartodb_id":75,"name":"Harbaugh, Stephen ","city":"Freeport","state":"FL","location":"Freeport,FL","latitude":30.49825,"longitude":-86.13605}},{"type":"Feature","geometry":{"type":"Point","coordinates":[-82.68778,30.105451]},"properties":{"cartodb_id":76,"name":"Harrington, Tommy E","city":"Lake City ","state":"FL","location":"Lake City ,FL","latitude":30.105451,"longitude":-82.68778}},{"type":"Feature","geometry":{"type":"Point","coordinates":[-85.577618,30.634834]},"properties":{"cartodb_id":77,"name":"Hartzog, Robert ","city":"Chipley","state":"FL","location":"Chipley,FL","latitude":30.634834,"longitude":-85.577618}},{"type":"Feature","geometry":{"type":"Point","coordinates":[-82.595728,28.468477]},"properties":{"cartodb_id":78,"name":"Hatfield, David ","city":"Spring Hill","state":"FL","location":"Spring Hill,FL","latitude":28.468477,"longitude":-82.595728}},{"type":"Feature","geometry":{"type":"Point","coordinates":[-81.373012,27.457947]},"properties":{"cartodb_id":79,"name":"Haywood, Wendall ","city":"Sebring","state":"FL","location":"Sebring,FL","latitude":27.457947,"longitude":-81.373012}},{"type":"Feature","geometry":{"type":"Point","coordinates":[-82.046244,26.902989]},"properties":{"cartodb_id":80,"name":"Herbert, Robin Keith","city":"Punta Gorda","state":"FL","location":"Punta Gorda,FL","latitude":26.902989,"longitude":-82.046244}},{"type":"Feature","geometry":{"type":"Point","coordinates":[-81.888695,28.758895]},"properties":{"cartodb_id":81,"name":"Hershberger, David A","city":"Leesburg","state":"FL","location":"Leesburg,FL","latitude":28.758895,"longitude":-81.888695}},{"type":"Feature","geometry":{"type":"Point","coordinates":[-81.329387,29.183646]},"properties":{"cartodb_id":82,"name":"Higginbotham, William W","city":"Deleon Springs ","state":"FL","location":"Deleon Springs ,FL","latitude":29.183646,"longitude":-81.329387}},{"type":"Feature","geometry":{"type":"Point","coordinates":[-82.68778,30.105451]},"properties":{"cartodb_id":83,"name":"Holler, Donald ","city":"Lake City","state":"FL","location":"Lake City,FL","latitude":30.105451,"longitude":-82.68778}},{"type":"Feature","geometry":{"type":"Point","coordinates":[-81.899669,28.035908]},"properties":{"cartodb_id":84,"name":"Holt, Rocky ","city":"Lakeland","state":"FL","location":"Lakeland,FL","latitude":28.035908,"longitude":-81.899669}},{"type":"Feature","geometry":{"type":"Point","coordinates":[-81.033705,28.951931]},"properties":{"cartodb_id":85,"name":"Hotard, Roland F","city":"New Smyrna Beach","state":"FL","location":"New Smyrna Beach,FL","latitude":28.951931,"longitude":-81.033705}},{"type":"Feature","geometry":{"type":"Point","coordinates":[-81.329387,29.183646]},"properties":{"cartodb_id":86,"name":"Hough, Richard ","city":"De Leon Springs","state":"FL","location":"De Leon Springs,FL","latitude":29.183646,"longitude":-81.329387}},{"type":"Feature","geometry":{"type":"Point","coordinates":[-82.68778,30.105451]},"properties":{"cartodb_id":87,"name":"Hudson, Jerry M","city":"Lake City","state":"FL","location":"Lake City,FL","latitude":30.105451,"longitude":-82.68778}},{"type":"Feature","geometry":{"type":"Point","coordinates":[-82.508694,28.859286]},"properties":{"cartodb_id":88,"name":"Hyde, John Lee","city":"Beverly Hills","state":"FL","location":"Beverly Hills,FL","latitude":28.859286,"longitude":-82.508694}},{"type":"Feature","geometry":{"type":"Point","coordinates":[-82.08732,29.59191]},"properties":{"cartodb_id":89,"name":"Ivey, Jerry K","city":"Hawthorne","state":"FL","location":"Hawthorne,FL","latitude":29.59191,"longitude":-82.08732}},{"type":"Feature","geometry":{"type":"Point","coordinates":[-82.409148,28.45743]},"properties":{"cartodb_id":90,"name":"Jankowski, Frederick ","city":"Ioxahatchee","state":"FL","location":"Ioxahatchee,FL","latitude":28.45743,"longitude":-82.409148}},{"type":"Feature","geometry":{"type":"Point","coordinates":[-81.225582,29.05725]},"properties":{"cartodb_id":91,"name":"Jensen, Rodney ","city":"Deland","state":"FL","location":"Deland,FL","latitude":29.05725,"longitude":-81.225582}},{"type":"Feature","geometry":{"type":"Point","coordinates":[-81.367087,29.918235]},"properties":{"cartodb_id":92,"name":"Johnson, Philip P","city":"Saint Augustine","state":"FL","location":"Saint Augustine,FL","latitude":29.918235,"longitude":-81.367087}},{"type":"Feature","geometry":{"type":"Point","coordinates":[-82.68778,30.105451]},"properties":{"cartodb_id":93,"name":"Kemp, David W","city":"Lake City","state":"FL","location":"Lake City,FL","latitude":30.105451,"longitude":-82.68778}},{"type":"Feature","geometry":{"type":"Point","coordinates":[-82.81762,29.61329]},"properties":{"cartodb_id":94,"name":"Kilian, Robert A","city":"Trenton","state":"FL","location":"Trenton,FL","latitude":29.61329,"longitude":-82.81762}},{"type":"Feature","geometry":{"type":"Point","coordinates":[-82.71373,29.92329]},"properties":{"cartodb_id":95,"name":"King, Carl D","city":"Fort White","state":"FL","location":"Fort White,FL","latitude":29.92329,"longitude":-82.71373}},{"type":"Feature","geometry":{"type":"Point","coordinates":[-81.350772,28.7577]},"properties":{"cartodb_id":96,"name":"Kossin, Glenn ","city":"Lake Mary","state":"FL","location":"Lake Mary,FL","latitude":28.7577,"longitude":-81.350772}},{"type":"Feature","geometry":{"type":"Point","coordinates":[-80.92291,28.974136]},"properties":{"cartodb_id":97,"name":"Kranz, David ","city":"Edgewater","state":"FL","location":"Edgewater,FL","latitude":28.974136,"longitude":-80.92291}},{"type":"Feature","geometry":{"type":"Point","coordinates":[-81.76468,29.998318]},"properties":{"cartodb_id":98,"name":"Lawlor, Edward ","city":"Green Cove Springs","state":"FL","location":"Green Cove Springs,FL","latitude":29.998318,"longitude":-81.76468}},{"type":"Feature","geometry":{"type":"Point","coordinates":[-81.225582,29.05725]},"properties":{"cartodb_id":99,"name":"Lawrence, Kimberly ","city":"Deland","state":"FL","location":"Deland,FL","latitude":29.05725,"longitude":-81.225582}},{"type":"Feature","geometry":{"type":"Point","coordinates":[-82.087458,29.240728]},"properties":{"cartodb_id":100,"name":"Linne III, Theodore ","city":"Dunnellon","state":"FL","location":"Dunnellon,FL","latitude":29.240728,"longitude":-82.087458}},{"type":"Feature","geometry":{"type":"Point","coordinates":[-80.623424,28.325685]},"properties":{"cartodb_id":101,"name":"Marden, Joseph ","city":"Cocoa Beach","state":"FL","location":"Cocoa Beach,FL","latitude":28.325685,"longitude":-80.623424}},{"type":"Feature","geometry":{"type":"Point","coordinates":[-81.329387,29.183646]},"properties":{"cartodb_id":102,"name":"Marsh, Brian C","city":"DeLeon Springs ","state":"FL","location":"DeLeon Springs ,FL","latitude":29.183646,"longitude":-81.329387}},{"type":"Feature","geometry":{"type":"Point","coordinates":[-82.71373,29.92329]},"properties":{"cartodb_id":103,"name":"Martin, William B","city":"Fort White","state":"FL","location":"Fort White,FL","latitude":29.92329,"longitude":-82.71373}},{"type":"Feature","geometry":{"type":"Point","coordinates":[-82.395858,28.586197]},"properties":{"cartodb_id":104,"name":"Mason, Kevin C","city":"Brooksville","state":"FL","location":"Brooksville,FL","latitude":28.586197,"longitude":-82.395858}},{"type":"Feature","geometry":{"type":"Point","coordinates":[-82.128052,26.624433]},"properties":{"cartodb_id":105,"name":"Mccarthy, Robert ","city":"Bokeelia","state":"FL","location":"Bokeelia,FL","latitude":26.624433,"longitude":-82.128052}},{"type":"Feature","geometry":{"type":"Point","coordinates":[-81.225582,29.05725]},"properties":{"cartodb_id":106,"name":"McCormick, Gerald C","city":"Deland","state":"FL","location":"Deland,FL","latitude":29.05725,"longitude":-81.225582}},{"type":"Feature","geometry":{"type":"Point","coordinates":[-81.225582,29.05725]},"properties":{"cartodb_id":107,"name":"McGhee, Grady ","city":"Deland","state":"FL","location":"Deland,FL","latitude":29.05725,"longitude":-81.225582}},{"type":"Feature","geometry":{"type":"Point","coordinates":[-81.373012,27.457947]},"properties":{"cartodb_id":108,"name":"Merchant, Herman D","city":"Sebring","state":"FL","location":"Sebring,FL","latitude":27.457947,"longitude":-81.373012}},{"type":"Feature","geometry":{"type":"Point","coordinates":[-81.653642,28.811078]},"properties":{"cartodb_id":109,"name":"Meyer, John M","city":"Lady Lake ","state":"FL","location":"Lady Lake ,FL","latitude":28.811078,"longitude":-81.653642}},{"type":"Feature","geometry":{"type":"Point","coordinates":[-81.96669,28.85891]},"properties":{"cartodb_id":110,"name":"Miller, Donald ","city":"The Villages","state":"FL","location":"The Villages,FL","latitude":28.85891,"longitude":-81.96669}},{"type":"Feature","geometry":{"type":"Point","coordinates":[-82.781523,27.978147]},"properties":{"cartodb_id":111,"name":"Miller, Donnie ","city":"Clearwater","state":"FL","location":"Clearwater,FL","latitude":27.978147,"longitude":-82.781523}},{"type":"Feature","geometry":{"type":"Point","coordinates":[-80.458168,25.558428]},"properties":{"cartodb_id":112,"name":"Miller, Gene ","city":"Miami ","state":"FL","location":"Miami ,FL","latitude":25.558428,"longitude":-80.458168}},{"type":"Feature","geometry":{"type":"Point","coordinates":[-82.3542,26.982666]},"properties":{"cartodb_id":113,"name":"Mohr, Thomas Robert","city":"Englewood","state":"FL","location":"Englewood,FL","latitude":26.982666,"longitude":-82.3542}},{"type":"Feature","geometry":{"type":"Point","coordinates":[-82.152363,26.985889]},"properties":{"cartodb_id":114,"name":"Montanez, Julio ","city":"Port Charlotte","state":"FL","location":"Port Charlotte,FL","latitude":26.985889,"longitude":-82.152363}},{"type":"Feature","geometry":{"type":"Point","coordinates":[-81.367087,29.918235]},"properties":{"cartodb_id":115,"name":"Morse, William ","city":"St. Augustine","state":"FL","location":"St. Augustine,FL","latitude":29.918235,"longitude":-81.367087}},{"type":"Feature","geometry":{"type":"Point","coordinates":[-80.945361,27.420316]},"properties":{"cartodb_id":116,"name":"Moss, James Henry","city":"Okeechobee","state":"FL","location":"Okeechobee,FL","latitude":27.420316,"longitude":-80.945361}},{"type":"Feature","geometry":{"type":"Point","coordinates":[-81.225582,29.05725]},"properties":{"cartodb_id":117,"name":"Murray, Michael James","city":"Deland","state":"FL","location":"Deland,FL","latitude":29.05725,"longitude":-81.225582}},{"type":"Feature","geometry":{"type":"Point","coordinates":[-80.534169,27.412128]},"properties":{"cartodb_id":118,"name":"Myers, William E","city":"Ft. Pierce","state":"FL","location":"Ft. Pierce,FL","latitude":27.412128,"longitude":-80.534169}},{"type":"Feature","geometry":{"type":"Point","coordinates":[-81.32951,28.865268]},"properties":{"cartodb_id":119,"name":"Neidert, Ronald Keith","city":"Debary","state":"FL","location":"Debary,FL","latitude":28.865268,"longitude":-81.32951}},{"type":"Feature","geometry":{"type":"Point","coordinates":[-82.464468,27.144031]},"properties":{"cartodb_id":120,"name":"Ness, Wesley","city":"Nokomis","state":"FL","location":"Nokomis,FL","latitude":27.144031,"longitude":-82.464468}},{"type":"Feature","geometry":{"type":"Point","coordinates":[-82.68778,30.105451]},"properties":{"cartodb_id":121,"name":"Odom, Joseph Richard","city":"Lake City","state":"FL","location":"Lake City,FL","latitude":30.105451,"longitude":-82.68778}},{"type":"Feature","geometry":{"type":"Point","coordinates":[-81.225582,29.05725]},"properties":{"cartodb_id":122,"name":"Pippio, Edward J","city":"Deland","state":"FL","location":"Deland,FL","latitude":29.05725,"longitude":-81.225582}},{"type":"Feature","geometry":{"type":"Point","coordinates":[-80.723065,28.28714]},"properties":{"cartodb_id":123,"name":"Pittman, Richard ","city":"Rockledge","state":"FL","location":"Rockledge,FL","latitude":28.28714,"longitude":-80.723065}},{"type":"Feature","geometry":{"type":"Point","coordinates":[-82.737601,27.755028]},"properties":{"cartodb_id":124,"name":"Powell, Richard ","city":"South Pasadena","state":"FL","location":"South Pasadena,FL","latitude":27.755028,"longitude":-82.737601}},{"type":"Feature","geometry":{"type":"Point","coordinates":[-80.127909,26.121323]},"properties":{"cartodb_id":125,"name":"Quinn, David ","city":"Ft Lauderdale","state":"FL","location":"Ft Lauderdale,FL","latitude":26.121323,"longitude":-80.127909}},{"type":"Feature","geometry":{"type":"Point","coordinates":[-80.254768,27.189748]},"properties":{"cartodb_id":126,"name":"Radford, Dean J","city":"Stuart","state":"FL","location":"Stuart,FL","latitude":27.189748,"longitude":-80.254768}},{"type":"Feature","geometry":{"type":"Point","coordinates":[-81.172169,29.022729]},"properties":{"cartodb_id":127,"name":"Raines, Robert ","city":"Ormond Beach","state":"FL","location":"Ormond Beach,FL","latitude":29.022729,"longitude":-81.172169}},{"type":"Feature","geometry":{"type":"Point","coordinates":[-82.046244,26.902989]},"properties":{"cartodb_id":128,"name":"Romanowski, Albert B","city":"Punta Gorda","state":"FL","location":"Punta Gorda,FL","latitude":26.902989,"longitude":-82.046244}},{"type":"Feature","geometry":{"type":"Point","coordinates":[-80.623618,28.079357]},"properties":{"cartodb_id":129,"name":"Sala, Albert ","city":"Melbourne","state":"FL","location":"Melbourne,FL","latitude":28.079357,"longitude":-80.623618}},{"type":"Feature","geometry":{"type":"Point","coordinates":[-83.30042,30.41966]},"properties":{"cartodb_id":130,"name":"Sanders, Donald William","city":"Lee","state":"FL","location":"Lee,FL","latitude":30.41966,"longitude":-83.30042}},{"type":"Feature","geometry":{"type":"Point","coordinates":[-80.340396,26.021239]},"properties":{"cartodb_id":131,"name":"Sawyer, John D","city":"Pembroke Pines","state":"FL","location":"Pembroke Pines,FL","latitude":26.021239,"longitude":-80.340396}},{"type":"Feature","geometry":{"type":"Point","coordinates":[-80.499812,25.526889]},"properties":{"cartodb_id":132,"name":"Schnorbus, John","city":"Homestead","state":"FL","location":"Homestead,FL","latitude":25.526889,"longitude":-80.499812}},{"type":"Feature","geometry":{"type":"Point","coordinates":[-82.811214,27.808636]},"properties":{"cartodb_id":133,"name":"Schutte, Christopher ","city":"Redington Beach","state":"FL","location":"Redington Beach,FL","latitude":27.808636,"longitude":-82.811214}},{"type":"Feature","geometry":{"type":"Point","coordinates":[-81.172169,29.022729]},"properties":{"cartodb_id":134,"name":"Seeley, Gary ","city":"Ormand Beach","state":"FL","location":"Ormand Beach,FL","latitude":29.022729,"longitude":-81.172169}},{"type":"Feature","geometry":{"type":"Point","coordinates":[-80.081614,26.457598]},"properties":{"cartodb_id":135,"name":"Serra, Joseph Michael","city":"Delray Beach","state":"FL","location":"Delray Beach,FL","latitude":26.457598,"longitude":-80.081614}},{"type":"Feature","geometry":{"type":"Point","coordinates":[-81.373291,28.545179]},"properties":{"cartodb_id":136,"name":"Shaheen, Julio ","city":"Orlando","state":"FL","location":"Orlando,FL","latitude":28.545179,"longitude":-81.373291}},{"type":"Feature","geometry":{"type":"Point","coordinates":[-80.534169,27.412128]},"properties":{"cartodb_id":137,"name":"Sharp, Caleb L","city":"Fort Pierce","state":"FL","location":"Fort Pierce,FL","latitude":27.412128,"longitude":-80.534169}},{"type":"Feature","geometry":{"type":"Point","coordinates":[-80.096433,26.192028]},"properties":{"cartodb_id":138,"name":"Shiver, Nuvel Duane","city":"North Lauderdale","state":"FL","location":"North Lauderdale,FL","latitude":26.192028,"longitude":-80.096433}},{"type":"Feature","geometry":{"type":"Point","coordinates":[-81.589937,29.59344]},"properties":{"cartodb_id":139,"name":"Silcox, Larry ","city":"San Mateo","state":"FL","location":"San Mateo,FL","latitude":29.59344,"longitude":-81.589937}},{"type":"Feature","geometry":{"type":"Point","coordinates":[-87.222516,30.428781]},"properties":{"cartodb_id":140,"name":"Smith, Richard Bruce","city":"Pensacola","state":"FL","location":"Pensacola,FL","latitude":30.428781,"longitude":-87.222516}},{"type":"Feature","geometry":{"type":"Point","coordinates":[-81.761821,26.032137]},"properties":{"cartodb_id":141,"name":"Spahl, Donald Robert","city":"Naples","state":"FL","location":"Naples,FL","latitude":26.032137,"longitude":-81.761821}},{"type":"Feature","geometry":{"type":"Point","coordinates":[-81.33425,29.402177]},"properties":{"cartodb_id":142,"name":"Spivey, David Austin","city":"Bunnell","state":"FL","location":"Bunnell,FL","latitude":29.402177,"longitude":-81.33425}},{"type":"Feature","geometry":{"type":"Point","coordinates":[-81.245074,28.900274]},"properties":{"cartodb_id":143,"name":"Stevens, Arthur Omar","city":"Deltona","state":"FL","location":"Deltona,FL","latitude":28.900274,"longitude":-81.245074}},{"type":"Feature","geometry":{"type":"Point","coordinates":[-80.340396,26.021239]},"properties":{"cartodb_id":144,"name":"Stricklin, Donald Ray","city":"Pembroke Pines","state":"FL","location":"Pembroke Pines,FL","latitude":26.021239,"longitude":-80.340396}},{"type":"Feature","geometry":{"type":"Point","coordinates":[-81.899669,28.035908]},"properties":{"cartodb_id":145,"name":"Thomas, Donald Paul","city":"Lakeland","state":"FL","location":"Lakeland,FL","latitude":28.035908,"longitude":-81.899669}},{"type":"Feature","geometry":{"type":"Point","coordinates":[-81.878139,26.621074]},"properties":{"cartodb_id":146,"name":"Thompson, Daniel R","city":"Ft. Myers","state":"FL","location":"Ft. Myers,FL","latitude":26.621074,"longitude":-81.878139}},{"type":"Feature","geometry":{"type":"Point","coordinates":[-81.899669,28.035908]},"properties":{"cartodb_id":147,"name":"Thompson, Ronald E","city":"Lakeland","state":"FL","location":"Lakeland,FL","latitude":28.035908,"longitude":-81.899669}},{"type":"Feature","geometry":{"type":"Point","coordinates":[-83.388742,30.527068]},"properties":{"cartodb_id":148,"name":"Tuckey, Thomas ","city":"Madison","state":"FL","location":"Madison,FL","latitude":30.527068,"longitude":-83.388742}},{"type":"Feature","geometry":{"type":"Point","coordinates":[-81.678843,28.855051]},"properties":{"cartodb_id":149,"name":"Waldrop, Darian ","city":"Eustis","state":"Fl","location":"Eustis,Fl","latitude":28.855051,"longitude":-81.678843}},{"type":"Feature","geometry":{"type":"Point","coordinates":[-80.070249,26.715844]},"properties":{"cartodb_id":150,"name":"Welch, Richard K","city":"West Palm Beach","state":"FL","location":"West Palm Beach,FL","latitude":26.715844,"longitude":-80.070249}},{"type":"Feature","geometry":{"type":"Point","coordinates":[-82.68778,30.105451]},"properties":{"cartodb_id":151,"name":"Wendel Jr, Paul L","city":"Lake City","state":"FL","location":"Lake City,FL","latitude":30.105451,"longitude":-82.68778}},{"type":"Feature","geometry":{"type":"Point","coordinates":[-81.33425,29.402177]},"properties":{"cartodb_id":152,"name":"Wetherby, Jerry R","city":"Bunnell","state":"FL","location":"Bunnell,FL","latitude":29.402177,"longitude":-81.33425}},{"type":"Feature","geometry":{"type":"Point","coordinates":[-82.582035,27.996097]},"properties":{"cartodb_id":153,"name":"Williams, Richard ","city":"Tampa","state":"FL","location":"Tampa,FL","latitude":27.996097,"longitude":-82.582035}},{"type":"Feature","geometry":{"type":"Point","coordinates":[-82.68778,30.105451]},"properties":{"cartodb_id":154,"name":"Williams, Thomas E","city":"Lake City","state":"FL","location":"Lake City,FL","latitude":30.105451,"longitude":-82.68778}},{"type":"Feature","geometry":{"type":"Point","coordinates":[-80.534169,27.412128]},"properties":{"cartodb_id":155,"name":"Wilson, Thomas G","city":"Ft. Pierce","state":"FL","location":"Ft. Pierce,FL","latitude":27.412128,"longitude":-80.534169}},{"type":"Feature","geometry":{"type":"Point","coordinates":[-81.225582,29.05725]},"properties":{"cartodb_id":156,"name":"Woodward, William ","city":"Deland","state":"FL","location":"Deland,FL","latitude":29.05725,"longitude":-81.225582}},{"type":"Feature","geometry":{"type":"Point","coordinates":[-81.493973,31.180919]},"properties":{"cartodb_id":157,"name":"Baker, William Jack","city":"Brunswick","state":"GA","location":"Brunswick,GA","latitude":31.180919,"longitude":-81.493973}},{"type":"Feature","geometry":{"type":"Point","coordinates":[-84.010581,32.687207]},"properties":{"cartodb_id":158,"name":"Bentley, Charles Hill","city":"Roberta","state":"GA","location":"Roberta,GA","latitude":32.687207,"longitude":-84.010581}},{"type":"Feature","geometry":{"type":"Point","coordinates":[-84.819397,33.369595]},"properties":{"cartodb_id":159,"name":"Bonk, David Hugh","city":"Newnan","state":"GA","location":"Newnan,GA","latitude":33.369595,"longitude":-84.819397}},{"type":"Feature","geometry":{"type":"Point","coordinates":[-83.981112,33.319863]},"properties":{"cartodb_id":160,"name":"Branch, David Andy","city":"Jackson","state":"GA","location":"Jackson,GA","latitude":33.319863,"longitude":-83.981112}},{"type":"Feature","geometry":{"type":"Point","coordinates":[-84.176166,34.293049]},"properties":{"cartodb_id":161,"name":"Brannan, Kenneth R","city":"Cumming","state":"GA","location":"Cumming,GA","latitude":34.293049,"longitude":-84.176166}},{"type":"Feature","geometry":{"type":"Point","coordinates":[-82.330546,32.129147]},"properties":{"cartodb_id":162,"name":"Byrd, Brian ","city":"Lyons","state":"GA","location":"Lyons,GA","latitude":32.129147,"longitude":-82.330546}},{"type":"Feature","geometry":{"type":"Point","coordinates":[-84.002061,33.719178]},"properties":{"cartodb_id":163,"name":"Clark, Michael E","city":"Conyers","state":"GA","location":"Conyers,GA","latitude":33.719178,"longitude":-84.002061}},{"type":"Feature","geometry":{"type":"Point","coordinates":[-83.593543,31.462512]},"properties":{"cartodb_id":164,"name":"Clements, Randy Lee","city":"Tifton","state":"GA","location":"Tifton,GA","latitude":31.462512,"longitude":-83.593543}},{"type":"Feature","geometry":{"type":"Point","coordinates":[-83.90574,34.41871]},"properties":{"cartodb_id":165,"name":"Dotson, Terald G","city":"Murrayville","state":"GA","location":"Murrayville,GA","latitude":34.41871,"longitude":-83.90574}},{"type":"Feature","geometry":{"type":"Point","coordinates":[-84.207969,33.549947]},"properties":{"cartodb_id":166,"name":"Dunn, Charles William","city":"Stockbridge","state":"GA","location":"Stockbridge,GA","latitude":33.549947,"longitude":-84.207969}},{"type":"Feature","geometry":{"type":"Point","coordinates":[-84.753929,34.264331]},"properties":{"cartodb_id":167,"name":"Gimelli Jr, Joseph C","city":"White","state":"GA","location":"White,GA","latitude":34.264331,"longitude":-84.753929}},{"type":"Feature","geometry":{"type":"Point","coordinates":[-83.791644,32.115981]},"properties":{"cartodb_id":168,"name":"Goodman, Jimmy Chriswell","city":"Vienna","state":"GA","location":"Vienna,GA","latitude":32.115981,"longitude":-83.791644}},{"type":"Feature","geometry":{"type":"Point","coordinates":[-83.837912,34.334398]},"properties":{"cartodb_id":169,"name":"Gowder, Kenneth W","city":"Gainesville","state":"GA","location":"Gainesville,GA","latitude":34.334398,"longitude":-83.837912}},{"type":"Feature","geometry":{"type":"Point","coordinates":[-83.967636,34.867512]},"properties":{"cartodb_id":170,"name":"Grantham, James E","city":"Blairsville","state":"GA","location":"Blairsville,GA","latitude":34.867512,"longitude":-83.967636}},{"type":"Feature","geometry":{"type":"Point","coordinates":[-84.733865,32.564771]},"properties":{"cartodb_id":171,"name":"Hall, Joseph Mobley","city":"Upatoi","state":"GA","location":"Upatoi,GA","latitude":32.564771,"longitude":-84.733865}},{"type":"Feature","geometry":{"type":"Point","coordinates":[-83.73795,30.95991]},"properties":{"cartodb_id":172,"name":"Hancock, Bobby W","city":"Pavo","state":"GA","location":"Pavo,GA","latitude":30.95991,"longitude":-83.73795}},{"type":"Feature","geometry":{"type":"Point","coordinates":[-84.819397,33.369595]},"properties":{"cartodb_id":173,"name":"Harper, Billy Glen","city":"Newnan","state":"GA","location":"Newnan,GA","latitude":33.369595,"longitude":-84.819397}},{"type":"Feature","geometry":{"type":"Point","coordinates":[-83.721536,33.943652]},"properties":{"cartodb_id":174,"name":"Hester, Michael Tyre","city":"Bethlehem","state":"GA","location":"Bethlehem,GA","latitude":33.943652,"longitude":-83.721536}},{"type":"Feature","geometry":{"type":"Point","coordinates":[-84.48215,34.69481]},"properties":{"cartodb_id":175,"name":"Hill, Donald P","city":"Ellijay","state":"GA","location":"Ellijay,GA","latitude":34.69481,"longitude":-84.48215}},{"type":"Feature","geometry":{"type":"Point","coordinates":[-83.269632,31.571754]},"properties":{"cartodb_id":176,"name":"Hudgins, Horace Lee","city":"Ocilla ","state":"GA","location":"Ocilla ,GA","latitude":31.571754,"longitude":-83.269632}},{"type":"Feature","geometry":{"type":"Point","coordinates":[-83.785365,31.917178]},"properties":{"cartodb_id":177,"name":"Jenkins, Charles Mac","city":"Cordele","state":"GA","location":"Cordele,GA","latitude":31.917178,"longitude":-83.785365}},{"type":"Feature","geometry":{"type":"Point","coordinates":[-84.989796,34.801861]},"properties":{"cartodb_id":178,"name":"Johnson, Ricky David","city":"Dalton","state":"GA","location":"Dalton,GA","latitude":34.801861,"longitude":-84.989796}},{"type":"Feature","geometry":{"type":"Point","coordinates":[-84.226075,32.572668]},"properties":{"cartodb_id":179,"name":"Johnstone II, Robert Thomas","city":"Butler","state":"GA","location":"Butler,GA","latitude":32.572668,"longitude":-84.226075}},{"type":"Feature","geometry":{"type":"Point","coordinates":[-83.837912,34.334398]},"properties":{"cartodb_id":180,"name":"Jones, Robert E","city":"Gainesville","state":"GA","location":"Gainesville,GA","latitude":34.334398,"longitude":-83.837912}},{"type":"Feature","geometry":{"type":"Point","coordinates":[-83.457267,34.856395]},"properties":{"cartodb_id":181,"name":"Lambert, Ronnie A","city":"Tiger","state":"GA","location":"Tiger,GA","latitude":34.856395,"longitude":-83.457267}},{"type":"Feature","geometry":{"type":"Point","coordinates":[-84.055005,33.476762]},"properties":{"cartodb_id":182,"name":"Lattimore, Kenneth Perry","city":"McDonough","state":"GA","location":"McDonough,GA","latitude":33.476762,"longitude":-84.055005}},{"type":"Feature","geometry":{"type":"Point","coordinates":[-84.010581,32.687207]},"properties":{"cartodb_id":183,"name":"Lowe, Randolph Milton","city":"Roberta","state":"GA","location":"Roberta,GA","latitude":32.687207,"longitude":-84.010581}},{"type":"Feature","geometry":{"type":"Point","coordinates":[-84.27992,32.44043]},"properties":{"cartodb_id":184,"name":"Mathis, Tony Jay","city":"Rupert","state":"GA","location":"Rupert,GA","latitude":32.44043,"longitude":-84.27992}},{"type":"Feature","geometry":{"type":"Point","coordinates":[-83.51433,33.73734]},"properties":{"cartodb_id":185,"name":"Maxwell, Ronny Keith","city":"Bostwick","state":"GA","location":"Bostwick,GA","latitude":33.73734,"longitude":-83.51433}},{"type":"Feature","geometry":{"type":"Point","coordinates":[-82.194912,31.731163]},"properties":{"cartodb_id":186,"name":"Milton Jr, Earl Vance","city":"Surrency","state":"GA","location":"Surrency,GA","latitude":31.731163,"longitude":-82.194912}},{"type":"Feature","geometry":{"type":"Point","coordinates":[-82.010258,31.512923]},"properties":{"cartodb_id":187,"name":"Nichols, Ned Braswell","city":"Screven","state":"GA","location":"Screven,GA","latitude":31.512923,"longitude":-82.010258}},{"type":"Feature","geometry":{"type":"Point","coordinates":[-83.375358,34.886868]},"properties":{"cartodb_id":188,"name":"Parker, Greg ","city":"Clayton","state":"GA","location":"Clayton,GA","latitude":34.886868,"longitude":-83.375358}},{"type":"Feature","geometry":{"type":"Point","coordinates":[-83.823023,32.783332]},"properties":{"cartodb_id":189,"name":"Parks, Franklin Henderson","city":"Lizella","state":"GA","location":"Lizella,GA","latitude":32.783332,"longitude":-83.823023}},{"type":"Feature","geometry":{"type":"Point","coordinates":[-83.837912,34.334398]},"properties":{"cartodb_id":190,"name":"Peck, Charles H","city":"Gainesville","state":"GA","location":"Gainesville,GA","latitude":34.334398,"longitude":-83.837912}},{"type":"Feature","geometry":{"type":"Point","coordinates":[-83.74615,34.610466]},"properties":{"cartodb_id":191,"name":"Peel, William Donald","city":"Cleveland","state":"GA","location":"Cleveland,GA","latitude":34.610466,"longitude":-83.74615}},{"type":"Feature","geometry":{"type":"Point","coordinates":[-84.289552,33.265854]},"properties":{"cartodb_id":192,"name":"Raines, Danny L","city":"Griffin","state":"GA","location":"Griffin,GA","latitude":33.265854,"longitude":-84.289552}},{"type":"Feature","geometry":{"type":"Point","coordinates":[-83.193389,33.560655]},"properties":{"cartodb_id":193,"name":"Sandling Jr, Bodie Felton","city":"Greensboro","state":"GA","location":"Greensboro,GA","latitude":33.560655,"longitude":-83.193389}},{"type":"Feature","geometry":{"type":"Point","coordinates":[-84.176166,34.293049]},"properties":{"cartodb_id":194,"name":"Wallace, Gregory ","city":"Cumming","state":"GA","location":"Cumming,GA","latitude":34.293049,"longitude":-84.176166}},{"type":"Feature","geometry":{"type":"Point","coordinates":[-81.493973,31.180919]},"properties":{"cartodb_id":195,"name":"Wood, Joel Bruce","city":"Brunswick","state":"GA","location":"Brunswick,GA","latitude":31.180919,"longitude":-81.493973}},{"type":"Feature","geometry":{"type":"Point","coordinates":[-93.572173,41.672687]},"properties":{"cartodb_id":196,"name":"Dvorak, John  ","city":"Ankeny","state":"IA","location":"Ankeny,IA","latitude":41.672687,"longitude":-93.572173}},{"type":"Feature","geometry":{"type":"Point","coordinates":[-95.574297,42.721535]},"properties":{"cartodb_id":197,"name":"George, Mark ","city":"Cherokee","state":"IA","location":"Cherokee,IA","latitude":42.721535,"longitude":-95.574297}},{"type":"Feature","geometry":{"type":"Point","coordinates":[-87.702442,41.722005]},"properties":{"cartodb_id":198,"name":"Masterson, Martin Joseph","city":"Evergreen Park","state":"IL","location":"Evergreen Park,IL","latitude":41.722005,"longitude":-87.702442}},{"type":"Feature","geometry":{"type":"Point","coordinates":[-87.319937,41.590686]},"properties":{"cartodb_id":199,"name":"Butler, Kyle M","city":"Gary","state":"IN","location":"Gary,IN","latitude":41.590686,"longitude":-87.319937}},{"type":"Feature","geometry":{"type":"Point","coordinates":[-85.337737,41.583475]},"properties":{"cartodb_id":200,"name":"DeWitt, David Michael","city":"Wolcottville","state":"IN","location":"Wolcottville,IN","latitude":41.583475,"longitude":-85.337737}},{"type":"Feature","geometry":{"type":"Point","coordinates":[-85.439133,39.612836]},"properties":{"cartodb_id":201,"name":"Herbert, Larry ","city":"Rushville","state":"IN","location":"Rushville,IN","latitude":39.612836,"longitude":-85.439133}},{"type":"Feature","geometry":{"type":"Point","coordinates":[-85.168099,39.656933]},"properties":{"cartodb_id":202,"name":"Ronan, Lewis D","city":"Connersville","state":"IN","location":"Connersville,IN","latitude":39.656933,"longitude":-85.168099}},{"type":"Feature","geometry":{"type":"Point","coordinates":[-85.489225,40.842697]},"properties":{"cartodb_id":203,"name":"Thompson, Joseph Elbridge","city":"Huntington","state":"IN","location":"Huntington,IN","latitude":40.842697,"longitude":-85.489225}},{"type":"Feature","geometry":{"type":"Point","coordinates":[-100.664407,38.000771]},"properties":{"cartodb_id":204,"name":"Van Meter, Rick ","city":"Garden City","state":"KS","location":"Garden City,KS","latitude":38.000771,"longitude":-100.664407}},{"type":"Feature","geometry":{"type":"Point","coordinates":[-84.544294,37.10288]},"properties":{"cartodb_id":205,"name":"Adams, David C","city":"Somerset","state":"KY","location":"Somerset,KY","latitude":37.10288,"longitude":-84.544294}},{"type":"Feature","geometry":{"type":"Point","coordinates":[-84.61645,38.037847]},"properties":{"cartodb_id":206,"name":"Jackson, Harold ","city":"Lexington","state":"KY","location":"Lexington,KY","latitude":38.037847,"longitude":-84.61645}},{"type":"Feature","geometry":{"type":"Point","coordinates":[-84.61645,38.037847]},"properties":{"cartodb_id":207,"name":"McCarty, Gene A","city":"Lexington","state":"KY","location":"Lexington,KY","latitude":38.037847,"longitude":-84.61645}},{"type":"Feature","geometry":{"type":"Point","coordinates":[-84.213426,38.217248]},"properties":{"cartodb_id":208,"name":"Osborne, James Anthony","city":"Paris","state":"KY","location":"Paris,KY","latitude":38.217248,"longitude":-84.213426}},{"type":"Feature","geometry":{"type":"Point","coordinates":[-87.828578,36.80201]},"properties":{"cartodb_id":209,"name":"Rager, John Robert","city":"Cadiz","state":"KY","location":"Cadiz,KY","latitude":36.80201,"longitude":-87.828578}},{"type":"Feature","geometry":{"type":"Point","coordinates":[-84.160724,37.964922]},"properties":{"cartodb_id":210,"name":"Rupard, Jack O","city":"Winchester ","state":"KY","location":"Winchester ,KY","latitude":37.964922,"longitude":-84.160724}},{"type":"Feature","geometry":{"type":"Point","coordinates":[-84.160724,37.964922]},"properties":{"cartodb_id":211,"name":"Sidwell, Earnest Scott","city":"Winchester","state":"KY","location":"Winchester,KY","latitude":37.964922,"longitude":-84.160724}},{"type":"Feature","geometry":{"type":"Point","coordinates":[-83.924711,38.052103]},"properties":{"cartodb_id":212,"name":"Staton, James Randall","city":"Mt. Sterling","state":"KY","location":"Mt. Sterling,KY","latitude":38.052103,"longitude":-83.924711}},{"type":"Feature","geometry":{"type":"Point","coordinates":[-93.750228,32.498202]},"properties":{"cartodb_id":214,"name":"Brooks, Lee M","city":"Shreveport","state":"LA","location":"Shreveport,LA","latitude":32.498202,"longitude":-93.750228}},{"type":"Feature","geometry":{"type":"Point","coordinates":[-90.393867,30.467958]},"properties":{"cartodb_id":215,"name":"George, Merlin R","city":"Ponchatoula","state":"LA","location":"Ponchatoula,LA","latitude":30.467958,"longitude":-90.393867}},{"type":"Feature","geometry":{"type":"Point","coordinates":[-90.361759,30.635647]},"properties":{"cartodb_id":216,"name":"Hendon, Morris ","city":"Loranger","state":"LA","location":"Loranger,LA","latitude":30.635647,"longitude":-90.361759}},{"type":"Feature","geometry":{"type":"Point","coordinates":[-90.455381,30.533587]},"properties":{"cartodb_id":217,"name":"Holden, Michael D","city":"Hammond","state":"LA","location":"Hammond,LA","latitude":30.533587,"longitude":-90.455381}},{"type":"Feature","geometry":{"type":"Point","coordinates":[-90.455381,30.533587]},"properties":{"cartodb_id":218,"name":"Kelly, Bruce ","city":"Hammond","state":"LA","location":"Hammond,LA","latitude":30.533587,"longitude":-90.455381}},{"type":"Feature","geometry":{"type":"Point","coordinates":[-90.483189,30.091158]},"properties":{"cartodb_id":219,"name":"Neal, Johnnie B","city":"LaPlace","state":"LA","location":"LaPlace,LA","latitude":30.091158,"longitude":-90.483189}},{"type":"Feature","geometry":{"type":"Point","coordinates":[-93.637939,31.64176]},"properties":{"cartodb_id":220,"name":"Owens, Charles David","city":"Zwolle","state":"LA","location":"Zwolle,LA","latitude":31.64176,"longitude":-93.637939}},{"type":"Feature","geometry":{"type":"Point","coordinates":[-90.69898,30.04048]},"properties":{"cartodb_id":221,"name":"Reames, Kenneth D","city":"Lutcher","state":"LA","location":"Lutcher,LA","latitude":30.04048,"longitude":-90.69898}},{"type":"Feature","geometry":{"type":"Point","coordinates":[-92.172926,32.565664]},"properties":{"cartodb_id":222,"name":"Thornton, David L","city":"West Monroe","state":"LA","location":"West Monroe,LA","latitude":32.565664,"longitude":-92.172926}},{"type":"Feature","geometry":{"type":"Point","coordinates":[-90.393867,30.467958]},"properties":{"cartodb_id":223,"name":"VanHaelen, Robert ","city":"Ponchatoula","state":"LA","location":"Ponchatoula,LA","latitude":30.467958,"longitude":-90.393867}},{"type":"Feature","geometry":{"type":"Point","coordinates":[-90.156595,30.45886]},"properties":{"cartodb_id":224,"name":"Woodruff, John C","city":"Covington","state":"LA","location":"Covington,LA","latitude":30.45886,"longitude":-90.156595}},{"type":"Feature","geometry":{"type":"Point","coordinates":[-72.604842,42.170731]},"properties":{"cartodb_id":225,"name":"Weckerly, Daryl ","city":"Springfield","state":"MA","location":"Springfield,MA","latitude":42.170731,"longitude":-72.604842}},{"type":"Feature","geometry":{"type":"Point","coordinates":[-83.717806,42.648484]},"properties":{"cartodb_id":226,"name":"Weaver, Kenneth Lee","city":"Hartland","state":"MI","location":"Hartland,MI","latitude":42.648484,"longitude":-83.717806}},{"type":"Feature","geometry":{"type":"Point","coordinates":[-93.269097,44.984577]},"properties":{"cartodb_id":227,"name":"King, Lovel ","city":"Minneapolis","state":"MN","location":"Minneapolis,MN","latitude":44.984577,"longitude":-93.269097}},{"type":"Feature","geometry":{"type":"Point","coordinates":[-93.343673,37.25807]},"properties":{"cartodb_id":228,"name":"Bosley, Charles L","city":"Springfield","state":"MO","location":"Springfield,MO","latitude":37.25807,"longitude":-93.343673}},{"type":"Feature","geometry":{"type":"Point","coordinates":[-91.603214,39.954212]},"properties":{"cartodb_id":229,"name":"Dames, Peter A","city":"Maywood","state":"MO","location":"Maywood,MO","latitude":39.954212,"longitude":-91.603214}},{"type":"Feature","geometry":{"type":"Point","coordinates":[-90.440688,36.778764]},"properties":{"cartodb_id":230,"name":"Gebelhardt, Dennis ","city":"Popular Bluff","state":"MO","location":"Popular Bluff,MO","latitude":36.778764,"longitude":-90.440688}},{"type":"Feature","geometry":{"type":"Point","coordinates":[-91.966756,38.830203]},"properties":{"cartodb_id":231,"name":"Morts, Tyler ","city":"Fulton","state":"MO","location":"Fulton,MO","latitude":38.830203,"longitude":-91.966756}},{"type":"Feature","geometry":{"type":"Point","coordinates":[-94.598583,39.102404]},"properties":{"cartodb_id":232,"name":"Younger, Danny J","city":"Kansas City","state":"MO","location":"Kansas City,MO","latitude":39.102404,"longitude":-94.598583}},{"type":"Feature","geometry":{"type":"Point","coordinates":[-89.403302,31.82958]},"properties":{"cartodb_id":233,"name":"Barr, Johnny R","city":"Taylorsville","state":"MS","location":"Taylorsville,MS","latitude":31.82958,"longitude":-89.403302}},{"type":"Feature","geometry":{"type":"Point","coordinates":[-88.758742,30.405229]},"properties":{"cartodb_id":234,"name":"Broussard Jr, Alton ","city":"Vancleave","state":"MS","location":"Vancleave,MS","latitude":30.405229,"longitude":-88.758742}},{"type":"Feature","geometry":{"type":"Point","coordinates":[-89.28071,31.245138]},"properties":{"cartodb_id":235,"name":"Faris, Larry Charles","city":"Hattiesburg","state":"MS","location":"Hattiesburg,MS","latitude":31.245138,"longitude":-89.28071}},{"type":"Feature","geometry":{"type":"Point","coordinates":[-90.312371,32.370736]},"properties":{"cartodb_id":236,"name":"Goodson, Jack ","city":"Clinton","state":"MS","location":"Clinton,MS","latitude":32.370736,"longitude":-90.312371}},{"type":"Feature","geometry":{"type":"Point","coordinates":[-89.501513,31.228126]},"properties":{"cartodb_id":237,"name":"Hall, Michael Dwayne","city":"Purvis","state":"MS","location":"Purvis,MS","latitude":31.228126,"longitude":-89.501513}},{"type":"Feature","geometry":{"type":"Point","coordinates":[-89.962513,34.69018]},"properties":{"cartodb_id":238,"name":"Jackson III, Denton L","city":"Coldwater ","state":"MS","location":"Coldwater ,MS","latitude":34.69018,"longitude":-89.962513}},{"type":"Feature","geometry":{"type":"Point","coordinates":[-89.377942,30.372821]},"properties":{"cartodb_id":239,"name":"Jefferson, Jack ","city":"Diamondhead","state":"MS","location":"Diamondhead,MS","latitude":30.372821,"longitude":-89.377942}},{"type":"Feature","geometry":{"type":"Point","coordinates":[-89.938693,32.300019]},"properties":{"cartodb_id":240,"name":"Jordan, Allen Kent","city":"Brandon","state":"MS","location":"Brandon,MS","latitude":32.300019,"longitude":-89.938693}},{"type":"Feature","geometry":{"type":"Point","coordinates":[-89.28071,31.245138]},"properties":{"cartodb_id":241,"name":"Kinsey, James Michael","city":"Hattiesburg","state":"MS","location":"Hattiesburg,MS","latitude":31.245138,"longitude":-89.28071}},{"type":"Feature","geometry":{"type":"Point","coordinates":[-89.501513,31.228126]},"properties":{"cartodb_id":242,"name":"Regan, William S","city":"Purvis","state":"MS","location":"Purvis,MS","latitude":31.228126,"longitude":-89.501513}},{"type":"Feature","geometry":{"type":"Point","coordinates":[-88.758742,30.405229]},"properties":{"cartodb_id":243,"name":"Sellers, James Christopher","city":"Ocean Springs","state":"MS","location":"Ocean Springs,MS","latitude":30.405229,"longitude":-88.758742}},{"type":"Feature","geometry":{"type":"Point","coordinates":[-88.663429,32.013802]},"properties":{"cartodb_id":244,"name":"Shackelford, Kenneth T","city":"Quitman","state":"MS","location":"Quitman,MS","latitude":32.013802,"longitude":-88.663429}},{"type":"Feature","geometry":{"type":"Point","coordinates":[-89.114317,31.711733]},"properties":{"cartodb_id":245,"name":"Walters, Larry William","city":"Laurel","state":"MS","location":"Laurel,MS","latitude":31.711733,"longitude":-89.114317}},{"type":"Feature","geometry":{"type":"Point","coordinates":[-108.817298,45.398686]},"properties":{"cartodb_id":246,"name":"Roush, Charles C","city":"Framberg","state":"MT","location":"Framberg,MT","latitude":45.398686,"longitude":-108.817298}},{"type":"Feature","geometry":{"type":"Point","coordinates":[-81.026738,35.318697]},"properties":{"cartodb_id":247,"name":"Adams, William ","city":"Mount Holly","state":"NC","location":"Mount Holly,NC","latitude":35.318697,"longitude":-81.026738}},{"type":"Feature","geometry":{"type":"Point","coordinates":[-82.753971,35.174351]},"properties":{"cartodb_id":248,"name":"Bradley, Thomas W","city":"Brevard","state":"NC","location":"Brevard,NC","latitude":35.174351,"longitude":-82.753971}},{"type":"Feature","geometry":{"type":"Point","coordinates":[-83.18101,35.31114]},"properties":{"cartodb_id":249,"name":"Emery, Wallace C","city":"Cullowhee","state":"NC","location":"Cullowhee,NC","latitude":35.31114,"longitude":-83.18101}},{"type":"Feature","geometry":{"type":"Point","coordinates":[-82.553068,35.260468]},"properties":{"cartodb_id":250,"name":"Freeman, David R","city":"Hendersonville","state":"NC","location":"Hendersonville,NC","latitude":35.260468,"longitude":-82.553068}},{"type":"Feature","geometry":{"type":"Point","coordinates":[-81.676229,35.772992]},"properties":{"cartodb_id":251,"name":"Gallion, Dennis ","city":"Morganton","state":"NC","location":"Morganton,NC","latitude":35.772992,"longitude":-81.676229}},{"type":"Feature","geometry":{"type":"Point","coordinates":[-82.83736,35.53288]},"properties":{"cartodb_id":252,"name":"Gregg, Tony L","city":"Canton","state":"NC","location":"Canton,NC","latitude":35.53288,"longitude":-82.83736}},{"type":"Feature","geometry":{"type":"Point","coordinates":[-78.092871,35.368277]},"properties":{"cartodb_id":253,"name":"Hinson, James ","city":"Goldsboro","state":"NC","location":"Goldsboro,NC","latitude":35.368277,"longitude":-78.092871}},{"type":"Feature","geometry":{"type":"Point","coordinates":[-79.085469,36.077432]},"properties":{"cartodb_id":254,"name":"LLoyd, Richard P","city":"Hillsborough","state":"NC","location":"Hillsborough,NC","latitude":36.077432,"longitude":-79.085469}},{"type":"Feature","geometry":{"type":"Point","coordinates":[-78.884257,35.0748]},"properties":{"cartodb_id":255,"name":"Paige, Oliver ","city":"Fayetteville","state":"NC","location":"Fayetteville,NC","latitude":35.0748,"longitude":-78.884257}},{"type":"Feature","geometry":{"type":"Point","coordinates":[-79.786966,35.727975]},"properties":{"cartodb_id":256,"name":"Pearson, Aaron N","city":"Asheboro","state":"NC","location":"Asheboro,NC","latitude":35.727975,"longitude":-79.786966}},{"type":"Feature","geometry":{"type":"Point","coordinates":[-79.197058,34.595364]},"properties":{"cartodb_id":257,"name":"Ponder, Terry ","city":"Burnesville","state":"NC","location":"Burnesville,NC","latitude":34.595364,"longitude":-79.197058}},{"type":"Feature","geometry":{"type":"Point","coordinates":[-82.23845,35.20817]},"properties":{"cartodb_id":258,"name":"Poteat, William E","city":"Tryon","state":"NC","location":"Tryon,NC","latitude":35.20817,"longitude":-82.23845}},{"type":"Feature","geometry":{"type":"Point","coordinates":[-82.978588,35.637588]},"properties":{"cartodb_id":259,"name":"Rhinehart, James ","city":"Clyde","state":"NC","location":"Clyde,NC","latitude":35.637588,"longitude":-82.978588}},{"type":"Feature","geometry":{"type":"Point","coordinates":[-82.567281,35.602711]},"properties":{"cartodb_id":260,"name":"Runion, Phillip G","city":"Asheville","state":"NC","location":"Asheville,NC","latitude":35.602711,"longitude":-82.567281}},{"type":"Feature","geometry":{"type":"Point","coordinates":[-78.092871,35.368277]},"properties":{"cartodb_id":261,"name":"Smith, Bobby Roy","city":"Goldsboro","state":"NC","location":"Goldsboro,NC","latitude":35.368277,"longitude":-78.092871}},{"type":"Feature","geometry":{"type":"Point","coordinates":[-80.804151,35.26002]},"properties":{"cartodb_id":262,"name":"Tate, Travis ","city":"Charlotte  ","state":"NC","location":"Charlotte  ,NC","latitude":35.26002,"longitude":-80.804151}},{"type":"Feature","geometry":{"type":"Point","coordinates":[-83.422421,35.155829]},"properties":{"cartodb_id":263,"name":"Vaughters, William J","city":"Franklin","state":"NC","location":"Franklin,NC","latitude":35.155829,"longitude":-83.422421}},{"type":"Feature","geometry":{"type":"Point","coordinates":[-80.693292,35.060868]},"properties":{"cartodb_id":264,"name":"Wallace, Alan K","city":"Matthews","state":"NC","location":"Matthews,NC","latitude":35.060868,"longitude":-80.693292}},{"type":"Feature","geometry":{"type":"Point","coordinates":[-82.98875,35.48871]},"properties":{"cartodb_id":265,"name":"Warlick, Ernie W","city":"Waynesville ","state":"NC","location":"Waynesville ,NC","latitude":35.48871,"longitude":-82.98875}},{"type":"Feature","geometry":{"type":"Point","coordinates":[-82.588915,35.702704]},"properties":{"cartodb_id":266,"name":"Weaver, Dennis ","city":"Weaverville","state":"NC","location":"Weaverville,NC","latitude":35.702704,"longitude":-82.588915}},{"type":"Feature","geometry":{"type":"Point","coordinates":[-116.004795,36.655797]},"properties":{"cartodb_id":267,"name":"Christner, Robert John","city":"Pahrump","state":"NV","location":"Pahrump,NV","latitude":36.655797,"longitude":-116.004795}},{"type":"Feature","geometry":{"type":"Point","coordinates":[-75.96654,42.955618]},"properties":{"cartodb_id":268,"name":"DeJohn, Francis D","city":"Manlius","state":"NY","location":"Manlius,NY","latitude":42.955618,"longitude":-75.96654}},{"type":"Feature","geometry":{"type":"Point","coordinates":[-76.41716,43.32285]},"properties":{"cartodb_id":269,"name":"Lake, Jason ","city":"Fulton ","state":"NY","location":"Fulton ,NY","latitude":43.32285,"longitude":-76.41716}},{"type":"Feature","geometry":{"type":"Point","coordinates":[-81.526142,41.566834]},"properties":{"cartodb_id":270,"name":"Aquilano, Thomas J","city":"Euclid","state":"OH","location":"Euclid,OH","latitude":41.566834,"longitude":-81.526142}},{"type":"Feature","geometry":{"type":"Point","coordinates":[-81.722909,41.404774]},"properties":{"cartodb_id":271,"name":"Bishop, Thomas A","city":"Parma Hts.","state":"OH","location":"Parma Hts.,OH","latitude":41.404774,"longitude":-81.722909}},{"type":"Feature","geometry":{"type":"Point","coordinates":[-82.637945,40.143119]},"properties":{"cartodb_id":272,"name":"Bowens, Brian Francis","city":"Concord","state":"OH","location":"Concord,OH","latitude":40.143119,"longitude":-82.637945}},{"type":"Feature","geometry":{"type":"Point","coordinates":[-83.150116,40.837199]},"properties":{"cartodb_id":273,"name":"Brown, Myron Charles","city":"Nevada","state":"OH","location":"Nevada,OH","latitude":40.837199,"longitude":-83.150116}},{"type":"Feature","geometry":{"type":"Point","coordinates":[-80.856463,41.772459]},"properties":{"cartodb_id":274,"name":"Burns, Edward V","city":"Austinburg","state":"OH","location":"Austinburg,OH","latitude":41.772459,"longitude":-80.856463}},{"type":"Feature","geometry":{"type":"Point","coordinates":[-81.667486,41.489381]},"properties":{"cartodb_id":275,"name":"Christner, Timothy R","city":"Cleveland","state":"OH","location":"Cleveland,OH","latitude":41.489381,"longitude":-81.667486}},{"type":"Feature","geometry":{"type":"Point","coordinates":[-81.831656,41.313268]},"properties":{"cartodb_id":276,"name":"DeFlorville, Michael A","city":"Strongsville","state":"OH","location":"Strongsville,OH","latitude":41.313268,"longitude":-81.831656}},{"type":"Feature","geometry":{"type":"Point","coordinates":[-81.832107,41.401]},"properties":{"cartodb_id":277,"name":"Dilorenzo, Frank J","city":"Brookpark","state":"OH","location":"Brookpark,OH","latitude":41.401,"longitude":-81.832107}},{"type":"Feature","geometry":{"type":"Point","coordinates":[-81.831656,41.313268]},"properties":{"cartodb_id":278,"name":"Dombrowski, Robert Walter","city":"Strongsville","state":"OH","location":"Strongsville,OH","latitude":41.313268,"longitude":-81.831656}},{"type":"Feature","geometry":{"type":"Point","coordinates":[-83.580733,38.9163]},"properties":{"cartodb_id":279,"name":"Downs, Daniel Curtis","city":"Winchester","state":"OH","location":"Winchester,OH","latitude":38.9163,"longitude":-83.580733}},{"type":"Feature","geometry":{"type":"Point","coordinates":[-81.855048,41.109975]},"properties":{"cartodb_id":280,"name":"Dyer, Charles Edward","city":"Medina","state":"OH","location":"Medina,OH","latitude":41.109975,"longitude":-81.855048}},{"type":"Feature","geometry":{"type":"Point","coordinates":[-81.892503,38.984835]},"properties":{"cartodb_id":281,"name":"Ervin Jr, Howard Raymond","city":"Racine","state":"OH","location":"Racine,OH","latitude":38.984835,"longitude":-81.892503}},{"type":"Feature","geometry":{"type":"Point","coordinates":[-80.85675,40.90089]},"properties":{"cartodb_id":282,"name":"Farmer, Richard L","city":"Salem","state":"OH","location":"Salem,OH","latitude":40.90089,"longitude":-80.85675}},{"type":"Feature","geometry":null,"properties":{"cartodb_id":213,"name":"Arboneaux, Terry P","city":"Thibodauk","state":"LA","location":"Thibodauk,LA","latitude":29.7958,"longitude":-90.8229}},{"type":"Feature","geometry":{"type":"Point","coordinates":[-82.2692,38.793762]},"properties":{"cartodb_id":283,"name":"Fisher, Kermit Phillip","city":"Gallipolis","state":"OH","location":"Gallipolis,OH","latitude":38.793762,"longitude":-82.2692}},{"type":"Feature","geometry":{"type":"Point","coordinates":[-81.759577,41.390052]},"properties":{"cartodb_id":284,"name":"Fuizzotti, Joseph Anthony","city":"Parma Heights","state":"OH","location":"Parma Heights,OH","latitude":41.390052,"longitude":-81.759577}},{"type":"Feature","geometry":{"type":"Point","coordinates":[-82.345709,38.961601]},"properties":{"cartodb_id":285,"name":"Hawks, Randall D","city":"Vinton","state":"OH","location":"Vinton,OH","latitude":38.961601,"longitude":-82.345709}},{"type":"Feature","geometry":{"type":"Point","coordinates":[-81.922461,41.417347]},"properties":{"cartodb_id":286,"name":"Herman, Donald T","city":"North Olmsted","state":"OH","location":"North Olmsted,OH","latitude":41.417347,"longitude":-81.922461}},{"type":"Feature","geometry":{"type":"Point","coordinates":[-80.670057,40.477049]},"properties":{"cartodb_id":287,"name":"Hudson, Jacob David","city":"Toronto","state":"OH","location":"Toronto,OH","latitude":40.477049,"longitude":-80.670057}},{"type":"Feature","geometry":{"type":"Point","coordinates":[-84.311596,40.794444]},"properties":{"cartodb_id":288,"name":"Jackson, Kenneth L","city":"Delphos","state":"OH","location":"Delphos,OH","latitude":40.794444,"longitude":-84.311596}},{"type":"Feature","geometry":{"type":"Point","coordinates":[-81.639888,39.538788]},"properties":{"cartodb_id":289,"name":"Jones, Andrew William","city":"Waterford","state":"OH","location":"Waterford,OH","latitude":39.538788,"longitude":-81.639888}},{"type":"Feature","geometry":{"type":"Point","coordinates":[-81.531919,39.953185]},"properties":{"cartodb_id":290,"name":"Jones, Joseph Daniel","city":"Byesville","state":"OH","location":"Byesville,OH","latitude":39.953185,"longitude":-81.531919}},{"type":"Feature","geometry":{"type":"Point","coordinates":[-82.276201,38.92307]},"properties":{"cartodb_id":291,"name":"Louden, Louie Andrew","city":"Bidwell","state":"OH","location":"Bidwell,OH","latitude":38.92307,"longitude":-82.276201}},{"type":"Feature","geometry":{"type":"Point","coordinates":[-82.028231,40.71617]},"properties":{"cartodb_id":292,"name":"Plank, Michael A","city":"Shreve","state":"OH","location":"Shreve,OH","latitude":40.71617,"longitude":-82.028231}},{"type":"Feature","geometry":{"type":"Point","coordinates":[-81.59762,40.88978]},"properties":{"cartodb_id":293,"name":"Quartz, William Anthony","city":"Canal Fulton","state":"OH","location":"Canal Fulton,OH","latitude":40.88978,"longitude":-81.59762}},{"type":"Feature","geometry":{"type":"Point","coordinates":[-82.276201,38.92307]},"properties":{"cartodb_id":294,"name":"Saunders, Phillip D","city":"Bidwell","state":"OH","location":"Bidwell,OH","latitude":38.92307,"longitude":-82.276201}},{"type":"Feature","geometry":{"type":"Point","coordinates":[-82.981095,40.289886]},"properties":{"cartodb_id":295,"name":"Shaw, Harry A","city":"Delaware","state":"OH","location":"Delaware,OH","latitude":40.289886,"longitude":-82.981095}},{"type":"Feature","geometry":{"type":"Point","coordinates":[-81.444531,41.658653]},"properties":{"cartodb_id":296,"name":"Spelich, Robert Michael","city":"Eastlake","state":"OH","location":"Eastlake,OH","latitude":41.658653,"longitude":-81.444531}},{"type":"Feature","geometry":{"type":"Point","coordinates":[-81.492511,41.311288]},"properties":{"cartodb_id":297,"name":"Stepanik, Duane S","city":"Macedonia","state":"OH","location":"Macedonia,OH","latitude":41.311288,"longitude":-81.492511}},{"type":"Feature","geometry":{"type":"Point","coordinates":[-83.09296,39.88145]},"properties":{"cartodb_id":298,"name":"Stevens, Frank E","city":"Grove City","state":"OH","location":"Grove City,OH","latitude":39.88145,"longitude":-83.09296}},{"type":"Feature","geometry":{"type":"Point","coordinates":[-82.2692,38.793762]},"properties":{"cartodb_id":299,"name":"Still, Mark A","city":"Gallipolis","state":"OH","location":"Gallipolis,OH","latitude":38.793762,"longitude":-82.2692}},{"type":"Feature","geometry":{"type":"Point","coordinates":[-83.15825,40.0334]},"properties":{"cartodb_id":300,"name":"Stoneking, Robert ","city":"Hilliard","state":"OH","location":"Hilliard,OH","latitude":40.0334,"longitude":-83.15825}},{"type":"Feature","geometry":{"type":"Point","coordinates":[-80.815366,41.887831]},"properties":{"cartodb_id":301,"name":"Toivonen, Brian M","city":"Fairport Harbor","state":"OH","location":"Fairport Harbor,OH","latitude":41.887831,"longitude":-80.815366}},{"type":"Feature","geometry":{"type":"Point","coordinates":[-81.492511,41.311288]},"properties":{"cartodb_id":302,"name":"Vinson, Robert L","city":"Macedonia","state":"OH","location":"Macedonia,OH","latitude":41.311288,"longitude":-81.492511}},{"type":"Feature","geometry":{"type":"Point","coordinates":[-80.802854,41.017082]},"properties":{"cartodb_id":303,"name":"Wendell, Stanley King","city":"Youngstown ","state":"OH","location":"Youngstown ,OH","latitude":41.017082,"longitude":-80.802854}},{"type":"Feature","geometry":{"type":"Point","coordinates":[-81.541508,40.941723]},"properties":{"cartodb_id":304,"name":"Wokaty, David J","city":"New Franklin","state":"OH","location":"New Franklin,OH","latitude":40.941723,"longitude":-81.541508}},{"type":"Feature","geometry":{"type":"Point","coordinates":[-95.25052,35.7976]},"properties":{"cartodb_id":305,"name":"Baird, Thomas A","city":"Fort Gibson","state":"OK","location":"Fort Gibson,OK","latitude":35.7976,"longitude":-95.25052}},{"type":"Feature","geometry":{"type":"Point","coordinates":[-97.562817,35.491608]},"properties":{"cartodb_id":306,"name":"Birchett, Lawrence Dale","city":"Oklahoma City","state":"OK","location":"Oklahoma City,OK","latitude":35.491608,"longitude":-97.562817}},{"type":"Feature","geometry":{"type":"Point","coordinates":[-96.012229,35.462159]},"properties":{"cartodb_id":307,"name":"Brasier, Charles R","city":"Henryetta","state":"OK","location":"Henryetta,OK","latitude":35.462159,"longitude":-96.012229}},{"type":"Feature","geometry":{"type":"Point","coordinates":[-96.163955,35.982642]},"properties":{"cartodb_id":308,"name":"Burks, Stephen ","city":"Sapulpa","state":"OK","location":"Sapulpa,OK","latitude":35.982642,"longitude":-96.163955}},{"type":"Feature","geometry":{"type":"Point","coordinates":[-97.759874,35.390376]},"properties":{"cartodb_id":310,"name":"Gardner, Gary Lynn","city":"Mustang","state":"OK","location":"Mustang,OK","latitude":35.390376,"longitude":-97.759874}},{"type":"Feature","geometry":{"type":"Point","coordinates":[-98.026708,35.508128]},"properties":{"cartodb_id":311,"name":"Hauenstein, John Charles","city":"El Reno","state":"OK","location":"El Reno,OK","latitude":35.508128,"longitude":-98.026708}},{"type":"Feature","geometry":{"type":"Point","coordinates":[-96.960092,35.295843]},"properties":{"cartodb_id":312,"name":"Ledbetter, Randel K","city":"Shawnee","state":"OK","location":"Shawnee,OK","latitude":35.295843,"longitude":-96.960092}},{"type":"Feature","geometry":{"type":"Point","coordinates":[-97.276428,35.578623]},"properties":{"cartodb_id":313,"name":"Martin, Timmy D","city":"Jones","state":"OK","location":"Jones,OK","latitude":35.578623,"longitude":-97.276428}},{"type":"Feature","geometry":null,"properties":{"cartodb_id":309,"name":"Gardner, Billy Wayne","city":"Moore","state":"OK","location":"Moore,OK","latitude":35.3395,"longitude":-97.4867}},{"type":"Feature","geometry":{"type":"Point","coordinates":[-97.44451,35.208566]},"properties":{"cartodb_id":314,"name":"Miller, Phillip Keith","city":"Norman","state":"OK","location":"Norman,OK","latitude":35.208566,"longitude":-97.44451}},{"type":"Feature","geometry":{"type":"Point","coordinates":[-97.16364,35.48951]},"properties":{"cartodb_id":315,"name":"Millican, Steven ","city":"Harrah ","state":"OK","location":"Harrah ,OK","latitude":35.48951,"longitude":-97.16364}},{"type":"Feature","geometry":{"type":"Point","coordinates":[-97.134372,34.304534]},"properties":{"cartodb_id":316,"name":"Mize, David Wayne","city":"Springer ","state":"OK","location":"Springer ,OK","latitude":34.304534,"longitude":-97.134372}},{"type":"Feature","geometry":{"type":"Point","coordinates":[-95.517816,35.492196]},"properties":{"cartodb_id":317,"name":"Monks, Leonard William","city":"Checotah","state":"OK","location":"Checotah,OK","latitude":35.492196,"longitude":-95.517816}},{"type":"Feature","geometry":{"type":"Point","coordinates":[-95.841592,35.624291]},"properties":{"cartodb_id":318,"name":"Nunn Jr, Gene Allen","city":"Morris","state":"OK","location":"Morris,OK","latitude":35.624291,"longitude":-95.841592}},{"type":"Feature","geometry":{"type":"Point","coordinates":[-97.44451,35.208566]},"properties":{"cartodb_id":319,"name":"Palmrose, Richard ","city":"Norman","state":"OK","location":"Norman,OK","latitude":35.208566,"longitude":-97.44451}},{"type":"Feature","geometry":{"type":"Point","coordinates":[-97.562817,35.491608]},"properties":{"cartodb_id":320,"name":"Poe, John Kyle","city":"Oklahoma City","state":"OK","location":"Oklahoma City,OK","latitude":35.491608,"longitude":-97.562817}},{"type":"Feature","geometry":{"type":"Point","coordinates":[-97.750009,35.489527]},"properties":{"cartodb_id":321,"name":"Richey, Mark Allen","city":"Yukon","state":"OK","location":"Yukon,OK","latitude":35.489527,"longitude":-97.750009}},{"type":"Feature","geometry":{"type":"Point","coordinates":[-96.959439,35.183973]},"properties":{"cartodb_id":322,"name":"Watkins, Larry D","city":"Tecumseh","state":"OK","location":"Tecumseh,OK","latitude":35.183973,"longitude":-96.959439}},{"type":"Feature","geometry":{"type":"Point","coordinates":[-97.09142,35.4359]},"properties":{"cartodb_id":323,"name":"White, Jerry Michael","city":"McLoud","state":"OK","location":"McLoud,OK","latitude":35.4359,"longitude":-97.09142}},{"type":"Feature","geometry":{"type":"Point","coordinates":[-97.562817,35.491608]},"properties":{"cartodb_id":324,"name":"Youngker, Randal Steve","city":"Oklahoma City","state":"OK","location":"Oklahoma City,OK","latitude":35.491608,"longitude":-97.562817}},{"type":"Feature","geometry":{"type":"Point","coordinates":[-78.574759,39.95464]},"properties":{"cartodb_id":325,"name":"Easter, Timothy  James","city":"Bedford","state":"PA","location":"Bedford,PA","latitude":39.95464,"longitude":-78.574759}},{"type":"Feature","geometry":{"type":"Point","coordinates":[-75.32352,40.89565]},"properties":{"cartodb_id":326,"name":"Gasparetti-Buckman, Lois ","city":"Saylorsburg","state":"PA","location":"Saylorsburg,PA","latitude":40.89565,"longitude":-75.32352}},{"type":"Feature","geometry":{"type":"Point","coordinates":[-80.31923,40.75201]},"properties":{"cartodb_id":327,"name":"Lampkins, Keith ","city":"Beaver Falls","state":"PA","location":"Beaver Falls,PA","latitude":40.75201,"longitude":-80.31923}},{"type":"Feature","geometry":{"type":"Point","coordinates":[-79.950968,40.47441]},"properties":{"cartodb_id":328,"name":"McAllister, Terrence ","city":"Pittsburgh","state":"PA","location":"Pittsburgh,PA","latitude":40.47441,"longitude":-79.950968}},{"type":"Feature","geometry":{"type":"Point","coordinates":[-77.833451,40.902496]},"properties":{"cartodb_id":329,"name":"Moore, Thomas E","city":"Darligton","state":"PA","location":"Darligton,PA","latitude":40.902496,"longitude":-77.833451}},{"type":"Feature","geometry":{"type":"Point","coordinates":[-80.059383,41.803393]},"properties":{"cartodb_id":330,"name":"Wilcox, Scott B","city":"Cambridge Springs","state":"PA","location":"Cambridge Springs,PA","latitude":41.803393,"longitude":-80.059383}},{"type":"Feature","geometry":{"type":"Point","coordinates":[-81.63383,35.00549]},"properties":{"cartodb_id":331,"name":"Bradley, Mark Alexander","city":"Gaffney","state":"SC","location":"Gaffney,SC","latitude":35.00549,"longitude":-81.63383}},{"type":"Feature","geometry":{"type":"Point","coordinates":[-82.128301,34.114209]},"properties":{"cartodb_id":332,"name":"Cole, Arnold C","city":"Greenwood","state":"SC","location":"Greenwood,SC","latitude":34.114209,"longitude":-82.128301}},{"type":"Feature","geometry":{"type":"Point","coordinates":[-81.63383,35.00549]},"properties":{"cartodb_id":333,"name":"Ellis Jr, Nathaniel ","city":"Gaffney","state":"SC","location":"Gaffney,SC","latitude":35.00549,"longitude":-81.63383}},{"type":"Feature","geometry":{"type":"Point","coordinates":[-82.78375,34.65177]},"properties":{"cartodb_id":334,"name":"Haney, James Benjamin","city":"Pendleton","state":"SC","location":"Pendleton,SC","latitude":34.65177,"longitude":-82.78375}},{"type":"Feature","geometry":{"type":"Point","coordinates":[-82.78375,34.65177]},"properties":{"cartodb_id":335,"name":"Manley, Jerry Frank","city":"Pendleton","state":"SC","location":"Pendleton,SC","latitude":34.65177,"longitude":-82.78375}},{"type":"Feature","geometry":{"type":"Point","coordinates":[-80.073953,34.345106]},"properties":{"cartodb_id":336,"name":"Manning, Lawrence E","city":"Hartsville","state":"SC","location":"Hartsville,SC","latitude":34.345106,"longitude":-80.073953}},{"type":"Feature","geometry":{"type":"Point","coordinates":[-82.289322,34.696203]},"properties":{"cartodb_id":337,"name":"Martin, Garner Levant","city":"Simpsonville","state":"SC","location":"Simpsonville,SC","latitude":34.696203,"longitude":-82.289322}},{"type":"Feature","geometry":{"type":"Point","coordinates":[-82.47791,34.61845]},"properties":{"cartodb_id":338,"name":"Pruitt, Richard H","city":"Williamston","state":"SC","location":"Williamston,SC","latitude":34.61845,"longitude":-82.47791}},{"type":"Feature","geometry":{"type":"Point","coordinates":[-80.683935,34.717915]},"properties":{"cartodb_id":339,"name":"Richardson, John Robert","city":"Lancaster","state":"SC","location":"Lancaster,SC","latitude":34.717915,"longitude":-80.683935}},{"type":"Feature","geometry":{"type":"Point","coordinates":[-82.128301,34.114209]},"properties":{"cartodb_id":340,"name":"Riggins, Donny Ray","city":"Greenwood","state":"SC","location":"Greenwood,SC","latitude":34.114209,"longitude":-82.128301}},{"type":"Feature","geometry":{"type":"Point","coordinates":[-81.939337,33.526407]},"properties":{"cartodb_id":341,"name":"Rowland, James M","city":"North Augusta","state":"SC","location":"North Augusta,SC","latitude":33.526407,"longitude":-81.939337}},{"type":"Feature","geometry":{"type":"Point","coordinates":[-80.718482,34.588803]},"properties":{"cartodb_id":342,"name":"Sims, Leonard F","city":"Heath Springs","state":"SC","location":"Heath Springs,SC","latitude":34.588803,"longitude":-80.718482}},{"type":"Feature","geometry":{"type":"Point","coordinates":[-82.402871,34.848567]},"properties":{"cartodb_id":343,"name":"Smith, Robert Barry","city":"Greenville ","state":"SC","location":"Greenville ,SC","latitude":34.848567,"longitude":-82.402871}},{"type":"Feature","geometry":{"type":"Point","coordinates":[-82.218723,33.705234]},"properties":{"cartodb_id":344,"name":"Willis, Roy R","city":"Modoc","state":"SC","location":"Modoc,SC","latitude":33.705234,"longitude":-82.218723}},{"type":"Feature","geometry":{"type":"Point","coordinates":[-84.521104,35.816595]},"properties":{"cartodb_id":345,"name":"Cutts, Michael Joseph","city":"Kingston","state":"TN","location":"Kingston,TN","latitude":35.816595,"longitude":-84.521104}},{"type":"Feature","geometry":{"type":"Point","coordinates":[-83.299826,36.077612]},"properties":{"cartodb_id":346,"name":"Denley, Curtis Bryant","city":"White Pine","state":"TN","location":"White Pine,TN","latitude":36.077612,"longitude":-83.299826}},{"type":"Feature","geometry":{"type":"Point","coordinates":[-86.372158,35.762951]},"properties":{"cartodb_id":347,"name":"Hayes, Danny A","city":"Murfreesboro","state":"TN","location":"Murfreesboro,TN","latitude":35.762951,"longitude":-86.372158}},{"type":"Feature","geometry":{"type":"Point","coordinates":[-85.376504,35.386535]},"properties":{"cartodb_id":348,"name":"Layne, Rayburn Dwight","city":"Dunlap","state":"TN","location":"Dunlap,TN","latitude":35.386535,"longitude":-85.376504}},{"type":"Feature","geometry":{"type":"Point","coordinates":[-86.601925,35.168227]},"properties":{"cartodb_id":349,"name":"McGee, Richard Larry","city":"Fayetteville ","state":"TN","location":"Fayetteville ,TN","latitude":35.168227,"longitude":-86.601925}},{"type":"Feature","geometry":{"type":"Point","coordinates":[-84.189652,35.674723]},"properties":{"cartodb_id":350,"name":"Volintine, Dean Ammon","city":"Greenback","state":"TN","location":"Greenback,TN","latitude":35.674723,"longitude":-84.189652}},{"type":"Feature","geometry":{"type":"Point","coordinates":[-97.09364,28.013108]},"properties":{"cartodb_id":351,"name":"Ashley, Harold W","city":"Rockport","state":"TX","location":"Rockport,TX","latitude":28.013108,"longitude":-97.09364}},{"type":"Feature","geometry":{"type":"Point","coordinates":[-97.84068,27.422876]},"properties":{"cartodb_id":352,"name":"Bowen, Joe ","city":"Kingsville","state":"TX","location":"Kingsville,TX","latitude":27.422876,"longitude":-97.84068}},{"type":"Feature","geometry":{"type":"Point","coordinates":[-94.109705,30.073712]},"properties":{"cartodb_id":353,"name":"Bryant, James Elbert","city":"Beaumont","state":"TX","location":"Beaumont,TX","latitude":30.073712,"longitude":-94.109705}},{"type":"Feature","geometry":{"type":"Point","coordinates":[-94.97521,31.22518]},"properties":{"cartodb_id":354,"name":"Burke, Kenneth M","city":"Apple Springs","state":"TX","location":"Apple Springs,TX","latitude":31.22518,"longitude":-94.97521}},{"type":"Feature","geometry":{"type":"Point","coordinates":[-94.639022,31.534162]},"properties":{"cartodb_id":355,"name":"Carson, Raymond ","city":"Martinsville","state":"TX","location":"Martinsville,TX","latitude":31.534162,"longitude":-94.639022}},{"type":"Feature","geometry":{"type":"Point","coordinates":[-96.22775,32.13321]},"properties":{"cartodb_id":356,"name":"Christie, Larry Garvin","city":"Kerens","state":"TX","location":"Kerens,TX","latitude":32.13321,"longitude":-96.22775}},{"type":"Feature","geometry":{"type":"Point","coordinates":[-93.935765,30.15549]},"properties":{"cartodb_id":357,"name":"Crile, Larry ","city":"Vidor","state":"TX","location":"Vidor,TX","latitude":30.15549,"longitude":-93.935765}},{"type":"Feature","geometry":{"type":"Point","coordinates":[-93.832632,30.019163]},"properties":{"cartodb_id":358,"name":"Daniels, Ricky ","city":"Bridge City","state":"TX","location":"Bridge City,TX","latitude":30.019163,"longitude":-93.832632}},{"type":"Feature","geometry":{"type":"Point","coordinates":[-96.984711,28.804947]},"properties":{"cartodb_id":359,"name":"Dunn, Patrick Miles","city":"Victoria","state":"TX","location":"Victoria,TX","latitude":28.804947,"longitude":-96.984711}},{"type":"Feature","geometry":{"type":"Point","coordinates":[-97.60972,28.92109]},"properties":{"cartodb_id":360,"name":"Edwards, Ronald Keith","city":"Nordheim","state":"TX","location":"Nordheim,TX","latitude":28.92109,"longitude":-97.60972}},{"type":"Feature","geometry":{"type":"Point","coordinates":[-95.241857,29.380858]},"properties":{"cartodb_id":361,"name":"Garland II, Richard ","city":"Alvin","state":"TX","location":"Alvin,TX","latitude":29.380858,"longitude":-95.241857}},{"type":"Feature","geometry":{"type":"Point","coordinates":[-95.434241,29.83399]},"properties":{"cartodb_id":362,"name":"Hardy, Hermon ","city":"Humble","state":"TX","location":"Humble,TX","latitude":29.83399,"longitude":-95.434241}},{"type":"Feature","geometry":{"type":"Point","coordinates":[-97.297783,28.281826]},"properties":{"cartodb_id":363,"name":"Hendley, Stacy William","city":"Refugio","state":"TX","location":"Refugio,TX","latitude":28.281826,"longitude":-97.297783}},{"type":"Feature","geometry":{"type":"Point","coordinates":[-97.40918,31.44406]},"properties":{"cartodb_id":364,"name":"Hollingsworth, Jerry M","city":"McGregor","state":"TX","location":"McGregor,TX","latitude":31.44406,"longitude":-97.40918}},{"type":"Feature","geometry":{"type":"Point","coordinates":[-97.291484,32.771419]},"properties":{"cartodb_id":365,"name":"Holmes, Jerry Lynn","city":"Fort Worth","state":"TX","location":"Fort Worth,TX","latitude":32.771419,"longitude":-97.291484}},{"type":"Feature","geometry":{"type":"Point","coordinates":[-94.219122,30.281836]},"properties":{"cartodb_id":366,"name":"Jannise, Dale P","city":"Lumberton","state":"TX","location":"Lumberton,TX","latitude":30.281836,"longitude":-94.219122}},{"type":"Feature","geometry":{"type":"Point","coordinates":[-94.641414,31.301706]},"properties":{"cartodb_id":367,"name":"Jansen, Larry ","city":"Lufkin","state":"TX","location":"Lufkin,TX","latitude":31.301706,"longitude":-94.641414}},{"type":"Feature","geometry":{"type":"Point","coordinates":[-96.984711,28.804947]},"properties":{"cartodb_id":368,"name":"Johnson, Bryan ","city":"Victoria","state":"TX","location":"Victoria,TX","latitude":28.804947,"longitude":-96.984711}},{"type":"Feature","geometry":{"type":"Point","coordinates":[-94.17796,30.3491]},"properties":{"cartodb_id":369,"name":"King, Ricky D","city":"Silsbee","state":"TX","location":"Silsbee,TX","latitude":30.3491,"longitude":-94.17796}},{"type":"Feature","geometry":{"type":"Point","coordinates":[-94.219122,30.281836]},"properties":{"cartodb_id":370,"name":"Leach, Michael Lynn","city":"Lumberton","state":"TX","location":"Lumberton,TX","latitude":30.281836,"longitude":-94.219122}},{"type":"Feature","geometry":{"type":"Point","coordinates":[-94.641414,31.301706]},"properties":{"cartodb_id":371,"name":"Martinez, Richard Dale","city":"Lufkin","state":"TX","location":"Lufkin,TX","latitude":31.301706,"longitude":-94.641414}},{"type":"Feature","geometry":{"type":"Point","coordinates":[-94.309189,32.183133]},"properties":{"cartodb_id":372,"name":"Mayes, Michael Edwin","city":"Carthage","state":"TX","location":"Carthage,TX","latitude":32.183133,"longitude":-94.309189}},{"type":"Feature","geometry":{"type":"Point","coordinates":[-94.109705,30.073712]},"properties":{"cartodb_id":373,"name":"Nantz, Robert Larry","city":"Beaumont","state":"TX","location":"Beaumont,TX","latitude":30.073712,"longitude":-94.109705}},{"type":"Feature","geometry":{"type":"Point","coordinates":[-96.029222,32.146014]},"properties":{"cartodb_id":374,"name":"Perkins, Danny Lynn","city":"Malakoff","state":"TX","location":"Malakoff,TX","latitude":32.146014,"longitude":-96.029222}},{"type":"Feature","geometry":{"type":"Point","coordinates":[-94.526589,31.285984]},"properties":{"cartodb_id":375,"name":"Roam, Altus ","city":"Huntington","state":"TX","location":"Huntington,TX","latitude":31.285984,"longitude":-94.526589}},{"type":"Feature","geometry":{"type":"Point","coordinates":[-93.864976,30.071743]},"properties":{"cartodb_id":376,"name":"Roberson, Robert John","city":"Orange","state":"TX","location":"Orange,TX","latitude":30.071743,"longitude":-93.864976}},{"type":"Feature","geometry":{"type":"Point","coordinates":[-94.177354,33.411321]},"properties":{"cartodb_id":377,"name":"Rowe, David D","city":"Texarkana","state":"TX","location":"Texarkana,TX","latitude":33.411321,"longitude":-94.177354}},{"type":"Feature","geometry":{"type":"Point","coordinates":[-94.38912,30.74856]},"properties":{"cartodb_id":378,"name":"Spoon, Clayton Walter","city":"Woodville","state":"TX","location":"Woodville,TX","latitude":30.74856,"longitude":-94.38912}},{"type":"Feature","geometry":{"type":"Point","coordinates":[-98.239592,26.215816]},"properties":{"cartodb_id":379,"name":"Walsh Jr, Warren L","city":"McAllen","state":"TX","location":"McAllen,TX","latitude":26.215816,"longitude":-98.239592}},{"type":"Feature","geometry":{"type":"Point","coordinates":[-97.092196,27.873028]},"properties":{"cartodb_id":380,"name":"Wellman, Gerald L","city":"Aransas Pass","state":"TX","location":"Aransas Pass,TX","latitude":27.873028,"longitude":-97.092196}},{"type":"Feature","geometry":{"type":"Point","coordinates":[-98.73727,31.94931]},"properties":{"cartodb_id":381,"name":"Wooley, Darrell Glynn","city":"Sidney","state":"TX","location":"Sidney,TX","latitude":31.94931,"longitude":-98.73727}},{"type":"Feature","geometry":{"type":"Point","coordinates":[-77.58915,38.20096]},"properties":{"cartodb_id":382,"name":"Bounds, Jerry L","city":"Spotsylvania","state":"VA","location":"Spotsylvania,VA","latitude":38.20096,"longitude":-77.58915}},{"type":"Feature","geometry":{"type":"Point","coordinates":[-77.796156,38.308398]},"properties":{"cartodb_id":383,"name":"Carter, Robert ","city":"Locust Grove","state":"VA","location":"Locust Grove,VA","latitude":38.308398,"longitude":-77.796156}},{"type":"Feature","geometry":{"type":"Point","coordinates":[-77.967416,37.998422]},"properties":{"cartodb_id":384,"name":"Jacobs Jr, Earle G","city":"Louisa","state":"VA","location":"Louisa,VA","latitude":37.998422,"longitude":-77.967416}},{"type":"Feature","geometry":{"type":"Point","coordinates":[-77.967416,37.998422]},"properties":{"cartodb_id":385,"name":"Keller, Edwin ","city":"Louisa","state":"VA","location":"Louisa,VA","latitude":37.998422,"longitude":-77.967416}},{"type":"Feature","geometry":{"type":"Point","coordinates":[-77.832239,37.706554]},"properties":{"cartodb_id":386,"name":"Lowery, Gregory ","city":"Maidens","state":"VA","location":"Maidens,VA","latitude":37.706554,"longitude":-77.832239}},{"type":"Feature","geometry":{"type":"Point","coordinates":[-76.12036,36.844004]},"properties":{"cartodb_id":387,"name":"Meko, Paul ","city":"Virginia Beach ","state":"VA","location":"Virginia Beach ,VA","latitude":36.844004,"longitude":-76.12036}},{"type":"Feature","geometry":{"type":"Point","coordinates":[-78.150059,38.486703]},"properties":{"cartodb_id":388,"name":"Smith, Robert W","city":"Reva","state":"VA","location":"Reva,VA","latitude":38.486703,"longitude":-78.150059}},{"type":"Feature","geometry":{"type":"Point","coordinates":[-79.376228,36.603501]},"properties":{"cartodb_id":389,"name":"Tribby, Jerry ","city":"Danville","state":"VA","location":"Danville,VA","latitude":36.603501,"longitude":-79.376228}},{"type":"Feature","geometry":{"type":"Point","coordinates":[-77.796156,38.308398]},"properties":{"cartodb_id":390,"name":"Webster, Bruce W","city":"Locust Grove","state":"VA","location":"Locust Grove,VA","latitude":38.308398,"longitude":-77.796156}},{"type":"Feature","geometry":{"type":"Point","coordinates":[-77.487162,38.744685]},"properties":{"cartodb_id":391,"name":"Willis, James ","city":"Manassas","state":"VA","location":"Manassas,VA","latitude":38.744685,"longitude":-77.487162}},{"type":"Feature","geometry":{"type":"Point","coordinates":[-91.473097,44.75653]},"properties":{"cartodb_id":392,"name":"Goss, Jeffrey Alan","city":"Eau Claire","state":"WI","location":"Eau Claire,WI","latitude":44.75653,"longitude":-91.473097}},{"type":"Feature","geometry":{"type":"Point","coordinates":[-91.319492,44.958689]},"properties":{"cartodb_id":393,"name":"Gunderson, Jack R","city":"Chippewa Falls","state":"WI","location":"Chippewa Falls,WI","latitude":44.958689,"longitude":-91.319492}},{"type":"Feature","geometry":{"type":"Point","coordinates":[-91.319492,44.958689]},"properties":{"cartodb_id":394,"name":"Gustavson, Jim ","city":"Chippewa Falls","state":"WI","location":"Chippewa Falls,WI","latitude":44.958689,"longitude":-91.319492}},{"type":"Feature","geometry":{"type":"Point","coordinates":[-91.319492,44.958689]},"properties":{"cartodb_id":395,"name":"Steffen, Jeffrey P","city":"Chippewa Falls","state":"WI","location":"Chippewa Falls,WI","latitude":44.958689,"longitude":-91.319492}},{"type":"Feature","geometry":{"type":"Point","coordinates":[-78.523889,39.412854]},"properties":{"cartodb_id":396,"name":"Strait, Alan Conrad","city":"Slanesville ","state":"WV","location":"Slanesville ,WV","latitude":39.412854,"longitude":-78.523889}}]}